자치구,스트레스분류,해결태그,장소명,카테고리,도로명주소,경도,위도,전화번호,플레이스URL
강남구,안전,키워드:사람,유라멘 강남신논현역본점,음식점>일식>일본식라면,서울특별시 강남구 봉은사로4길 32 지상1층 유라멘,127.026709,37.5027824,,https://catchtable.co.kr/u-ramen
강남구,안전,키워드:사람,사람사는 고깃집 김일도 도곡점,"한식>육류,고기요리",서울특별시 강남구 논현로30길 38,127.0448694,37.4845774,,https://www.gorillafnd.co.kr/
강남구,안전,키워드:사람,사람사는고깃집김일도 뱅뱅점,"한식>육류,고기요리",서울특별시 강남구 도곡로3길 13 1층,127.0328401,37.4910995,,http://gorillafnd.co.kr
강남구,안전,키워드:사람,메루치양식장 강남점,"스포츠,오락>스포츠시설",서울특별시 강남구 봉은사로57길 42 지하1층,127.0443836,37.5134988,,https://url.kr/f249bi
강남구,안전,키워드:번화가,강남역거리,"여행,명소>거리,골목",,127.0289439,37.4992276,,
강남구,안전,키워드:백화점,현대백화점 무역센터점,"쇼핑,유통>백화점",서울특별시 강남구 테헤란로 517,127.0599078,37.5085856,,https://www.ehyundai.com/newPortal/index.do
강남구,안전,키워드:백화점,현대백화점 압구정본점,"쇼핑,유통>백화점",서울특별시 강남구 압구정로 165 현대백화점압구정본점,127.0273914,37.527443,,http://www.ehyundai.com/newPortal/DP/DP000000_V.do?branchCd=B00121000
강남구,안전,키워드:백화점,갤러리아백화점 명품관 WEST,"쇼핑,유통>백화점",서울특별시 강남구 압구정로 343 갤러리아 명품관WEST,127.0401668,37.5284675,,http://dept.galleria.co.kr/
강남구,안전,키워드:백화점,코지라멘 선릉본점,음식점>일식>일본식라면,서울특별시 강남구 선릉로86길 6-4 지상 1층,127.050407,37.502876,,https://blog.naver.com/cozyramen
강남구,안전,키워드:백화점,롯데백화점 강남점,"쇼핑,유통>백화점",서울특별시 강남구 도곡로 401 롯데백화점,127.0533431,37.4969364,,https://www.lotteshopping.com/store/main?cstrCd=0013
강남구,안전,키워드:복합문화공간,위글위글집 도산,"문화,예술>복합문화공간",서울특별시 강남구 언주로168길 31,127.0363006,37.5260905,,https://wiggle-wiggle.com/
강남구,안전,키워드:복합문화공간,일상비일상의틈byU+,"문화,예술>복합문화공간",서울특별시 강남구 강남대로 426,127.0267823,37.5005331,,https://www.instagram.com/daily_teum/
강남구,안전,키워드:복합문화공간,라움아트센터,"문화,예술>복합문화공간",서울특별시 강남구 언주로 564 라움아트센터,127.0397224,37.5081005,,http://www.theraum.co.kr/
강남구,안전,키워드:복합문화공간,식물관PH,"문화,예술>복합문화공간",서울특별시 강남구 광평로34길 24,127.0943672,37.4826902,,http://instagram.com/sikmulgwan.seoul
강남구,안전,키워드:안정,스페이스 온,"스포츠,레크레이션교육>요가,명상",서울특별시 강남구 개포로 623 12층 1202호,127.0796608,37.4943549,,https://blog.naver.com/haesung_life
강남구,안전,키워드:느좋,솔솥 선릉 삼성 포스코센터점,음식점>한식,"서울특별시 강남구 테헤란로 440 B1층 C07 솔솥 포스코센터점 (대치동, 포스코센터)",127.0561271,37.5058388,,
강남구,안전,키워드:느좋,이나세,"음식점>일식>우동,소바",서울특별시 강남구 테헤란로 521 파르나스몰 지하 1층 F-15호,127.0605875,37.5090213,,http://instagram.com/inase.soba_more
강남구,안전,키워드:느좋,곰스603 논현본점,음식점>양식,서울특별시 강남구 논현로 613 1층,127.0328985,37.5084972,,https://blog.naver.com/gomskitchen
강남구,안전,키워드:느좋,알로하포케 학동본점,"음식점>도시락,컵밥>다이어트,샐러드",서울특별시 강남구 논현로 705 1층,127.0301206,37.5147869,,http://www.alohapokeglobal.com
강남구,안전,키워드:느좋,압구정 고기집 옹기집 본점,"한식>육류,고기요리",서울특별시 강남구 논현로152길 3 다우빌딩 1층,127.0285486,37.5208967,,https://www.instagram.com/my_ceramic_house
강남구,안전,키워드:쉼터,옐로우문,"음식점>카페,디저트",서울특별시 강남구 삼성로 767 지하1층,127.047631,37.5231161,,https://blog.naver.com/yellowmoon719
강남구,안전,키워드:쉼터,양재천수변문화쉼터,"문화,예술>문화시설",서울특별시 강남구 논현로22길 77,127.0491707,37.4827688,,
강남구,안전,키워드:쉼터,srt 고객라운지,"레져,체육시설>공원",,127.1045603,37.4854186,,
강남구,안전,키워드:쉼터,율현공원 책쉼터,"교육,학문>도서관",서울특별시 강남구 밤고개로21길 85,127.1150605,37.4746397,,
강남구,안전,키워드:야경,콜룸바 삼성점,음식점>양식,서울특별시 강남구 봉은사로 449 17층,127.0488051,37.5119901,,https://app.catchtable.co.kr/ct/shop/kolumba_seoul?type=DINING&currentSuggestionType=SHOP_NAME_LIKE
강남구,안전,키워드:야경,마운트,술집>바(BAR),서울특별시 강남구 도산대로 323 청담CGV 15층,127.0369793,37.5229083,,
강동구,안전,키워드:사람,농장사람들,"한식>육류,고기요리",서울특별시 강동구 고덕로 109 1층,127.1374284,37.5548829,,
강동구,안전,키워드:사람,하늘정원을 가꾸는 사람들,"음식점>카페,디저트",서울특별시 강동구 천호옛길 41 B동 1층,127.1228142,37.5331009,,
강동구,안전,키워드:백화점,현대백화점 천호점,"쇼핑,유통>백화점",서울특별시 강동구 천호대로 1005 현대백화점천호점,127.1244058,37.5388608,,http://www.ehyundai.com/newPortal/DP/DP000000_V.do?branchCd=B00126000
강동구,안전,키워드:백화점,경송 천호본점,"한식>육류,고기요리",서울특별시 강동구 천호대로159길 22 1층 경송,127.1279664,37.5385627,,https://app.catchtable.co.kr/ct/shop/kyungsong
강동구,안전,키워드:복합문화공간,오뉴 천호,"음식점>카페,디저트",서울특별시 강동구 천호대로 1005 4층 오뉴,127.1243983,37.5389825,,https://onew.life
강동구,안전,키워드:복합문화공간,라이트룸서울,"문화,예술>복합문화공간",서울특별시 강동구 아리수로61길 103,127.1476889,37.5653767,,https://www.instagram.com/_lightroomseoul/
강동구,안전,키워드:복합문화공간,DE1993 JEWELRY CAFE,"문화,예술>복합문화공간",서울특별시 강동구 고덕로19길 8 DE1993빌딩,127.1338971,37.5551533,,http://www.de1993.com
강동구,안전,키워드:복합문화공간,서울청년센터 강동,"문화,예술>복합문화공간",서울특별시 강동구 올림픽로 610 천호역효성해링턴타워 B동 2층 서울청년센터 강동,127.1232917,37.5360954,,https://www.instagram.com/syc_gangdong/
강동구,안전,키워드:복합문화공간,천호마을활력소,"문화,예술>복합문화공간",서울특별시 강동구 구천면로68나길 17,127.1417612,37.5483497,,https://blog.naver.com/gangdongvital
강동구,안전,키워드:느좋,삼끼막창 천호본점,"한식>곱창,막창,양",서울특별시 강동구 올림픽로77길 10 1층 삼끼막창,127.1243935,37.5428614,,https://app.catchtable.co.kr/ct/shop/samkki_cheonho
강동구,안전,키워드:느좋,신사소곱창 천호점,"육류,고기요리>곱창,막창,양",서울특별시 강동구 천호대로155길 24,127.1262137,37.5390996,,https://www.instagram.com/no.1sinsaso_ch/
강동구,안전,키워드:느좋,대추나무 사랑걸렸네,음식점>술집,서울특별시 강동구 성안로3길 108 1층,127.1242186,37.527977,,https://www.instagram.com/daechu_seoul
강동구,안전,키워드:쉼터,광진교 8번가,"여행,명소>전망대",,127.1141474,37.5444771,,https://www.instagram.com/riverview.8/
강동구,안전,키워드:쉼터,쉼터먹거리,음식점>한식,서울특별시 강동구 양재대로136길 11,127.1443661,37.5487258,,
강동구,안전,키워드:쉼터,무더위쉼터,장소대여>공유누리 개방자원,서울특별시 강동구 강동대로53길 76 (성내동) 성내3동 주민센터,127.13287,37.5260101,,
강동구,안전,키워드:쉼터,솔기원,"스포츠,오락>바둑,기원",서울특별시 강동구 양재대로 1355 오스카 상가 3층 318호,127.135628,37.5274192,,
강동구,안전,키워드:야경,메종 드 플래터 스타시티서울 레스토랑,음식점>양식,서울특별시 강동구 구천면로 140 스타시티빌딩 7층,127.1204648,37.5422758,,https://app.catchtable.co.kr/ct/shop/maisondeplatter
강동구,안전,키워드:야경,7080 한강 야경 라이브 카페,음식점>술집,서울특별시 강동구 구천면로 140 스타시티 6층,127.1204648,37.5422758,,
강북구,안전,키워드:사람,빵이좋은사람들,"카페,디저트>베이커리",서울특별시 강북구 월계로7길 53,127.0337727,37.6126174,,
강북구,안전,키워드:사람,빵이좋은사람들,"카페,디저트>베이커리",,127.0337695,37.6126214,,
강북구,안전,키워드:사람,사람곡간,"한식>해물,생선요리",서울특별시 강북구 덕릉로40길 79,127.0336222,37.634436,,
강북구,안전,키워드:사람,시장을여는사람들 수유점,음식점>술집>요리주점,서울특별시 강북구 한천로139길 35 나동 2층,127.0253226,37.6387033,,https://www.instagram.com/sijang_suyu/
강북구,안전,키워드:백화점,롯데백화점 미아점,"쇼핑,유통>백화점",서울특별시 강북구 도봉로 62 롯데백화점미아점,127.0305114,37.6145723,,https://www.lotteshopping.com/store/main?cstrCd=0026
강북구,안전,키워드:백화점,크리스피크림도넛 롯데백화점 미아점,"카페,디저트>도넛",서울특별시 강북구 도봉로 62 롯데백화점미아점 B2,127.0304337,37.6141397,,https://www.lotteeatz.com/eatzMain
강북구,안전,키워드:백화점,짚신매운갈비찜 미아본점,"한식>육류,고기요리",서울특별시 강북구 월계로7나길 30-9 1층,127.0319616,37.6128385,,http://www.zipsinfood.co.kr/
강북구,안전,키워드:복합문화공간,더숲아카데미하우스,"문화,예술>복합문화공간",서울특별시 강북구 4.19로 135,127.0013935,37.6404244,,https://academyhouse.deosup.com
강북구,안전,키워드:복합문화공간,강북청년창업마루,"문화,예술>복합문화공간",서울특별시 강북구 노해로23길 123 강북청년창업마루,127.0173386,37.6474211,,http://www.gbmaru.com
강북구,안전,키워드:복합문화공간,서울청년센터 강북,"문화,예술>복합문화공간",서울특별시 강북구 노해로23길 123 강북청년창업마루,127.0173804,37.6474515,,https://www.instagram.com/youth_gangbuk/
강북구,안전,키워드:복합문화공간,허브36.5,"문화,예술>공연,연극시설",서울특별시 강북구 솔샘로67길 144 지하,127.0265121,37.6235054,,http://hub365.kr
강북구,안전,키워드:복합문화공간,삼양청년회관 2관,"문화,예술>복합문화공간",서울특별시 강북구 솔매로 3-10 터무늬있는 희망아지트 B동 지하1층,127.0133478,37.6253873,,http://www.samyangyouth.com
강북구,안전,키워드:쉼터,산마루쉼터,음식점>한식,서울특별시 강북구 4.19로12길 41,127.0057439,37.6465519,,
강북구,안전,키워드:쉼터,쉼터,음식점>한식,,127.0079846,37.646444,,
강북구,안전,키워드:쉼터,북한산체험형숲속쉼터,"레져,체육시설>공원",,127.00612,37.6357324,,
강북구,안전,키워드:쉼터,행복한쉼터&amp;문화공간,분식>종합분식,서울특별시 강북구 삼양로20길 27,127.0237529,37.6145857,,
강북구,안전,키워드:쉼터,나무그늘,분식>종합분식,서울특별시 강북구 삼양로20길 27,127.0237397,37.6145647,,
강북구,안전,키워드:야경,야경,술집>이자카야,서울특별시 강북구 노해로8가길 20 1층,127.0237093,37.6389136,,
강서구,안전,키워드:밝은,더베뉴지서울,"연애,결혼>예식장",서울특별시 강서구 강서로 388,126.8392962,37.5601883,,http://www.venueg.co.kr/
강서구,안전,키워드:사람,소중한 사람들의 인생국수,한식>국수,서울특별시 강서구 까치산로 22,126.8430568,37.5418785,,https://www.instagram.com/life__noodles
강서구,안전,키워드:사람,두부만드는사람들 등촌점,한식>두부요리,서울특별시 강서구 공항대로41길 66 두부를만드는사람들 등촌점,126.8466777,37.5608394,,
강서구,안전,키워드:백화점,NC백화점 강서점,"쇼핑,유통>백화점",서울특별시 강서구 강서로56길 17 NC백화점 강서점,126.8405062,37.5599572,,https://www.elandretail.com/m/store/store_01.do?branchID=00110005&lang=000600KO
강서구,안전,키워드:백화점,안스베이커리 롯데백화점 김포공항점,"카페,디저트>베이커리",서울특별시 강서구 하늘길 77 롯데백화점 김포공항점 GF,126.8036235,37.563025,,https://www.instagram.com/ansbakery_/
강서구,안전,키워드:백화점,롯데백화점 김포공항점,"쇼핑,유통>백화점",서울특별시 강서구 하늘길 77 롯데백화점김포공항점,126.8030981,37.5631779,,https://www.lotteshopping.com/store/main?cstrCd=0340
강서구,안전,키워드:백화점,폴 바셋 롯데백화점 김포공항점,"카페,디저트>카페",서울특별시 강서구 하늘길 38 롯데백화점 김포공항점 GF층,126.8031319,37.5631559,,https://www.baristapaulbassett.co.kr/Index.pb
강서구,안전,키워드:백화점,명동가츠라 롯데몰김포공항점,음식점>일식>일식당,서울특별시 강서구 하늘길 38 롯데몰 김포공항점 GF,126.8037282,37.5637522,,https://www.instagram.com/gassra.food
강서구,안전,키워드:복합문화공간,카페 비플랫,"음식점>카페,디저트",서울특별시 강서구 곰달래로 88 1층,126.8426132,37.5302116,,http://pf.kakao.com/_uPeQxj
강서구,안전,키워드:복합문화공간,독립서점 화서가,서점>독립서점,"서울특별시 강서구 월정로30길 52 201호, 202호",126.8387869,37.5346226,,https://blog.naver.com/hwaseoga
강서구,안전,키워드:복합문화공간,서울시어울림플라자,"문화,예술>복합문화공간",서울특별시 강서구 공항대로 489 서울시어울림플라자,126.8611606,37.5532355,,https://seouleoullim.or.kr/
강서구,안전,키워드:복합문화공간,오즈타운,"문화,예술>복합문화공간",서울특별시 강서구 마곡중앙4로 18 마곡그랑트윈타워 B동 4층 414호,126.8286198,37.5585262,,https://smartstore.naver.com/oztown
강서구,안전,키워드:복합문화공간,음악창작소 해봄,"문화,예술>복합문화공간",서울특별시 강서구 강서로45길 132-14 1층,126.8316131,37.5506765,,https://blog.naver.com/haebom_music
강서구,안전,키워드:느좋,스시도쿠 마곡코엑스점,음식점>일식>일식당,서울특별시 강서구 마곡중앙로 143 르웨스트시티 본동 지하2층 222호,126.825534,37.5664206,,
강서구,안전,키워드:느좋,안주공방 까치산역본점,술집>이자카야,서울특별시 강서구 국회대로 85-41 삼우빌딩 1층 안주공방,126.8443065,37.52818,,https://www.instagram.com/anju_gongbang
강서구,안전,키워드:느좋,영춘갈비,"한식>육류,고기요리","서울특별시 강서구 마곡중앙로 161-8 두산더랜드파크 C동 1층 101, 102호",126.8274366,37.5687808,,https://www.instagram.com/youngchoon_galbi
강서구,안전,키워드:느좋,남춘네숯불닭갈비 목동사거리본점,한식>닭갈비,서울특별시 강서구 등촌로 47-1,126.8633622,37.5342939,,https://www.instagram.com/namchunne_dak
강서구,안전,키워드:느좋,엘포엘 강서 화곡역 본점,음식점>양식,"서울특별시 강서구 화곡로27가길 34 1층, 2층",126.8421014,37.5432692,,https://www.instagram.com/likeforlikes_official
강서구,안전,키워드:쉼터,쉼터닭꼬치,"술집>오뎅,꼬치",서울특별시 강서구 강서로18가길 4,126.8470976,37.5340879,,
강서구,안전,키워드:쉼터,안양천합수부,"레져,체육시설>공원",,126.8780014,37.5539145,,
강서구,안전,키워드:쉼터,봉제산책쉼터,"교육,학문>도서관",서울특별시 강서구 초록마을로15길 33 2층 봉제산책쉼터,126.8522231,37.542522,,https://www.facebook.com/gdllibrary/
강서구,안전,키워드:쉼터,쉼터분식 내발산점,분식>종합분식,서울특별시 강서구 강서로47길 34-8 1층,126.8344515,37.5531506,,
강서구,안전,키워드:야경,미치루 호야,술집>요리주점,서울특별시 강서구 마곡중앙6로 45 1층 126호,126.832627,37.5605502,,https://www.instagram.com/yakyung_magok
강서구,안전,키워드:야경,양천향교,"여행,명소>문화,유적",서울특별시 강서구 양천로47나길 53,126.8398222,37.5730734,,http://www.hyanggyo.net/
강서구,안전,키워드:야경,나이아가라 호텔,숙박>호텔,서울특별시 강서구 양천로 743,126.8786284,37.5491957,,http://www.hotelniagara.co.kr/
관악구,안전,키워드:사람,고기굽는사람들 샤로수길본점,"한식>육류,고기요리",서울특별시 관악구 관악로14길 70 효림빌딩 1층 106호,126.95647,37.4782651,,https://blog.naver.com/sbw1101
관악구,안전,키워드:사람,고기굽는사람들 남현점,"한식>육류,고기요리",서울특별시 관악구 남현1길 68-22 1층 고기굽는사람들,126.9812089,37.4748199,,https://www.instagram.com/gogoopsa_sadang/
관악구,안전,키워드:사람,농장사람들 낙성대역점,"한식>육류,고기요리",서울특별시 관악구 남부순환로 1895,126.9603862,37.4786383,,http://instagram.com/nj.por5488
관악구,안전,키워드:사람,농장사람들 현대시장점,"한식>육류,고기요리",서울특별시 관악구 양녕로 45 농장사람들 현대시장점,126.9467685,37.4861013,,http://instagram.com/people.of.ranch?igshid=47bappmoutin
관악구,안전,키워드:사람,농장사람들,"한식>육류,고기요리",서울특별시 관악구 남부순환로210길 6,126.9447575,37.4817164,,
관악구,안전,키워드:백화점,롯데백화점 관악점,"쇼핑,유통>백화점",서울특별시 관악구 봉천로 209 롯데백화점관악점,126.9249899,37.4905081,,https://www.lotteshopping.com/store/main?cstrCd=0006
관악구,안전,키워드:백화점,쟝블랑제리 롯데백화점관악점,"카페,디저트>베이커리",서울특별시 관악구 봉천로 209,126.9247798,37.4903811,,
관악구,안전,키워드:백화점,퐁퐁플라워 롯데백화점 관악센터,"키즈카페,실내놀이터",서울특별시 관악구 봉천로 209 롯데백화점 관악점 지하1층,126.9247208,37.4906052,,https://www.instagram.com/pongpong.flower_official/
관악구,안전,키워드:복합문화공간,관악아트홀 어린이라운지,"문화,예술>복합문화공간",서울특별시 관악구 신림로3길 35 관악아트홀 1층,126.9449004,37.4676199,,https://www.instagram.com/g_kidslounge/
관악구,안전,키워드:복합문화공간,관악아트홀,"문화,예술>복합문화공간",서울특별시 관악구 신림로3길 35 관악아트홀,126.9448831,37.4678313,,https://www.instagram.com/gwanak_arthall/
관악구,안전,키워드:복합문화공간,관천로 문화플랫폼 S1472,"문화,예술>복합문화공간",서울특별시 관악구 관천로 53,126.9257641,37.484099,,https://www.instagram.com/s1472.official/
관악구,안전,키워드:복합문화공간,관악청년청,"문화,예술>복합문화공간",서울특별시 관악구 남부순환로 1759,126.9456648,37.4822523,,https://www.checkin-gwanak.or.kr/main
관악구,안전,키워드:복합문화공간,서울청년센터 관악 청년문화공간 신림동쓰리룸,"문화,예술>복합문화공간",서울특별시 관악구 신림로 99 청년활력공간 1-2층,126.9384192,37.470249,,https://blog.naver.com/sillim3room
관악구,안전,키워드:느좋,사담,음식점>브런치,서울특별시 관악구 남부순환로 1852 5층 사담,126.9556022,37.4798783,,http://instagram.com/cafe.sadam
관악구,안전,키워드:느좋,CODE101,"카페,디저트>카페",서울특별시 관악구 보라매로 7 1층 CODE101,126.9274011,37.4901499,,https://inflow.pay.naver.com/rd?tr=ds&retUrl=https%3A%2F%2Fm.smartstore.naver.com%2Fcode101_&pType=M&no=&vcode=5nr37hTMbR0M2dOdVUu0tawrqK5gKr3O9B3PLWHPu0nRtiZLcE7yRZCiKFTDQh4ovPZA%2FT4e%2FKgvp7dQ4svXHpSyiayj6wew3%2BaCyVH1kpE%3D
관악구,안전,키워드:느좋,족발김사부 난곡본점,"한식>족발,보쌈",서울특별시 관악구 난곡로 323 1층,126.9141578,37.4829581,,https://blog.naver.com/growth_mind_set__
관악구,안전,키워드:느좋,우지커피 신림역점,"음식점>카페,디저트","서울특별시 관악구 신림로 344 1층 139호, 140호 우지커피 신림점",126.9298471,37.4850835,,https://blog.naver.com/oozycompany
관악구,안전,키워드:쉼터,청년공간 이음,"문화,예술>복합문화공간",서울특별시 관악구 봉천로62길 5 옥산빌딩,126.9589069,37.477847,,http://i-eum.net
관악구,안전,키워드:쉼터,신림동 주민센터 무더위쉼터,장소대여>공유누리 개방자원,서울특별시 관악구 봉천로 224 (신림동) 주민센터,126.9261574,37.4894621,,
관악구,안전,키워드:쉼터,은천동 주민센터 무더위쉼터,장소대여>공유누리 개방자원,서울특별시 관악구 봉천로33나길 30 (봉천동) 주민센터,126.9424278,37.4853086,,
관악구,안전,키워드:쉼터,낙성대동주민센터 무더위쉼터,장소대여>공유누리 개방자원,서울특별시 관악구 낙성대로4가길 5 (봉천동) 주민센터,126.9583884,37.476297,,
관악구,안전,키워드:쉼터,청룡산유아쉼터,장소대여>공유누리 개방자원,서울특별시 관악구 관악로5길 91-39 175-36 청룡산유아쉼터,126.9491959,37.4742125,,
광진구,안전,키워드:사람,시장을여는사람들 건대점,음식점>술집>요리주점,서울특별시 광진구 동일로22길 81 캠퍼스프라자 2층 204~207호,127.0687976,37.5414428,,https://www.instagram.com/gundae_sijangpeople_?igsh=NjV4OTM2MmprdWJu
광진구,안전,키워드:사람,좋은사람들,술집>요리주점,서울특별시 광진구 아차산로51길 36-1 성지빌딩,127.0851684,37.5386487,,
광진구,안전,키워드:사람,원두볶는사람들,"카페,디저트>카페",서울특별시 광진구 자양로13길 107 1층 원두볶는사람들,127.0798889,37.5322152,,
광진구,안전,키워드:사람,행복한사람녹음실,"서비스,산업>장소대여",서울특별시 광진구 면목로 182 지하1층,127.0831946,37.5692758,,https://youtube.com/asbjgn
광진구,안전,키워드:사람,굽이마다만나는사람들국수냉면,한식>냉면,서울특별시 광진구 긴고랑로11길 4 1층,127.0815616,37.5635109,,
광진구,안전,키워드:백화점,롯데백화점 건대스타시티점,"쇼핑,유통>백화점",서울특별시 광진구 능동로 92,127.0711558,37.5390773,,https://www.lotteshopping.com/store/main?cstrCd=0028
광진구,안전,키워드:백화점,교보문고 건대스타시티점,"쇼핑,유통>서점",서울특별시 광진구 능동로 92,127.07171,37.5393143,,https://store.kyobobook.co.kr/store-info/023
광진구,안전,키워드:백화점,나폴레옹과자점 롯데백화점 건대스타시티점,"카페,디저트>베이커리",서울특별시 광진구 능동로 92 롯데백화점 스타시티점 지하1층,127.0712174,37.5392168,,https://napoleonbakery.co.kr/
광진구,안전,키워드:복합문화공간,커먼그라운드,"문화,예술>복합문화공간",서울특별시 광진구 아차산로 200,127.0655807,37.5413847,,http://www.common-ground.co.kr/
광진구,안전,키워드:복합문화공간,리봄교육,"문화,예술>복합문화공간",서울특별시 광진구 군자로 75 지장빌딩 204호,127.0706542,37.5499303,,https://blog.naver.com/revomdesigner
광진구,안전,키워드:복합문화공간,CXC아트뮤지엄,"문화,예술>복합문화공간","서울특별시 광진구 아차산로 272 롯데시네마 3F, CxC ART MUSEUM",127.0725349,37.5387327,,
광진구,안전,키워드:복합문화공간,브이스퀘어,"문화,예술>복합문화공간",서울특별시 광진구 아차산로 272 스타시티몰 3층,127.0729962,37.5385583,,
광진구,안전,키워드:복합문화공간,한강플플,"문화,예술>복합문화공간","서울특별시 광진구 강변북로 2202 뚝섬 자벌레 1층, 3층",127.0652298,37.5299386,,https://www.j-bug.co.kr/
광진구,안전,키워드:느좋,탄토탄토,음식점>이탈리아음식,서울특별시 광진구 아차산로33길 49 2층,127.0707414,37.5425095,,https://www.instagram.com/tantotanto_ku
광진구,안전,키워드:느좋,신사소곱창 건대점,"육류,고기요리>곱창,막창,양",서울특별시 광진구 아차산로31길 39 1층 신사소곱창 건대점,127.0699917,37.542738,,https://www.instagram.com/sinsaso.konkuk_univ
광진구,안전,키워드:느좋,카페 오캄,"음식점>카페,디저트",서울특별시 광진구 동일로22길 117-23 1층~3층,127.070851,37.5416139,,https://www.instagram.com/oklm.cafe
광진구,안전,키워드:느좋,논밭집,음식점>한식,서울특별시 광진구 아차산로51길 46,127.0851243,37.5390991,,
광진구,안전,키워드:느좋,오드커피하우스,"음식점>카페,디저트",서울특별시 광진구 아차산로40길 16 1층,127.0783297,37.5370104,,https://www.instagram.com/odee_coffee_house
광진구,안전,키워드:쉼터,세븐일레븐 아차산쉼터점,"생활,편의>편의점",서울특별시 광진구 영화사로 139,127.1001479,37.5523784,,http://www.7-eleven.co.kr
광진구,안전,키워드:쉼터,건대역거리쉼터,"레져,체육시설>공원",,127.0704322,37.5385859,,
광진구,안전,키워드:야경,아차산,"여행,명소>산",,127.1027414,37.5668454,,
광진구,안전,키워드:야경,용마산,"여행,명소>산",,127.0957337,37.5711597,,
구로구,안전,키워드:사람,출출한사람들,음식점>한식,서울특별시 구로구 경인로53길 15,126.8746491,37.5009708,,
구로구,안전,키워드:백화점,NC 신구로점,"쇼핑,유통>백화점",서울특별시 구로구 구로중앙로 152 NC신구로점,126.8827188,37.5012181,,https://www.elandretail.com/m/store/store_01.do?branchID=00110053&lang=000600KO
구로구,안전,키워드:백화점,바르미스시샤브 신도림점,음식점>일식>샤브샤브,서울특별시 구로구 경인로 661 신도림1차 푸르지오 2층,126.8876252,37.5091022,,https://www.instagram.com/bareumi_official
구로구,안전,키워드:백화점,김가네곱창구이 대림역본점,"한식>곱창,막창,양",서울특별시 구로구 도림로 93 1층 김가네곱창구이,126.8934822,37.4909711,,http://instagram.com/kim.gop
구로구,안전,키워드:복합문화공간,서울아트책보고,"문화,예술>복합문화공간",서울특별시 구로구 경인로 430 고척스카이돔 지하1층,126.8673636,37.4991271,,http://artbookbogo.kr/seoul/index.do
구로구,안전,키워드:복합문화공간,구로청년공간 청년이룸,"문화,예술>복합문화공간",서울특별시 구로구 오리로 1130 지하1층,126.840057,37.4853359,,http://www.youtheroom.kr/
구로구,안전,키워드:복합문화공간,신도림문화공간다락,"문화,예술>복합문화공간",서울특별시 구로구 새말로 121-15 2층,126.8921193,37.5076206,,
구로구,안전,키워드:복합문화공간,천왕역 버들 마을활력소,"문화,예술>복합문화공간",서울특별시 구로구 오리로 1130 지하2층,126.8400335,37.4853046,,https://blog.naver.com/pink_vitamin
구로구,안전,키워드:안정,안정,"서비스,산업>기업",서울특별시 구로구 디지털로31길 12,126.8953489,37.4850869,,
구로구,안전,키워드:쉼터,일이삼카페 쉼터,"음식점>카페,디저트",서울특별시 구로구 경인로 393-7 2동 1층 41호~44호,126.8630394,37.4974484,,https://blog.naver.com/sc6704
구로구,안전,키워드:쉼터,고척근린공원,"여행,명소>근린공원",서울특별시 구로구 고척로45길 39 구로구민체육센터,126.8521495,37.5042943,,
구로구,안전,키워드:쉼터,고척근린공원축구장,"도시,테마공원>부속시설",,126.8520856,37.505909,,
구로구,안전,키워드:쉼터,고척근린공원테니스장,"도시,테마공원>부속시설",,126.8512032,37.5059321,,
구로구,안전,키워드:쉼터,고척근린공원농구장,"도시,테마공원>부속시설",,126.8522782,37.5048749,,
구로구,안전,키워드:야경,투 가이즈 투어,"서비스,산업>여행사",서울특별시 구로구 디지털로 288,126.8953657,37.4837318,,http://twoguystour.com
구로구,안전,키워드:야경,이벤트하우스 봄,"지원,대행>이벤트,파티",서울특별시 구로구 디지털로26길 123 지층,126.8977122,37.4830869,,http://www.love-city.kr
금천구,안전,키워드:사람,만두빚는사람들 독산점,음식점>분식,서울특별시 금천구 시흥대로122길 9,126.898788,37.469531,,
금천구,안전,키워드:백화점,선호에프엔비,기업>프랜차이즈본사,서울특별시 금천구 벚꽃로 298 대륭포스트타워6차 1908-4호,126.8837813,37.4814002,,
금천구,안전,키워드:복합문화공간,서울청년센터 금천,"문화,예술>복합문화공간","서울특별시 금천구 가산디지털1로 120 1층, 2층",126.8836906,37.4762452,,https://www.youthblg.org/
금천구,안전,키워드:복합문화공간,퍼블릭가산,"쇼핑,유통>종합도소매",서울특별시 금천구 디지털로 178,126.8870772,37.4766952,,https://www.instagram.com/publik_gasan/
금천구,안전,키워드:복합문화공간,청춘삘딩,"문화,예술>복합문화공간",서울특별시 금천구 시흥대로138길 10-11,126.8992936,37.4721725,,https://www.instagram.com/youthblg/
금천구,안전,키워드:복합문화공간,고요한집,"문화,예술>복합문화공간",서울특별시 금천구 시흥대로 315 금천롯데캐슬4차 219호,126.8962652,37.4609911,,https://www.instagram.com/goyohanzib
금천구,안전,키워드:복합문화공간,만천명월예술인가,"문화,예술>복합문화공간",서울특별시 금천구 은행나무로 44 만천명월예술인가,126.9074524,37.4507126,,http://www.mcmw.art/
금천구,안전,키워드:안정,홍익무역,"서비스,산업>기업",서울특별시 금천구 가산디지털2로 115 814호,126.8788955,37.4777943,,https://blog.naver.com/hongik91
금천구,안전,키워드:쉼터,[금천구 무더위쉼터] 금천어르신복지센터 무더위쉼터,장소대여>공유누리 개방자원,서울특별시 금천구 범안로17길 22 (독산동) 금천어르신복지센터,126.8944524,37.467483,,
금천구,안전,키워드:쉼터,[금천구 무더위쉼터] 금천현대아파트경로당 무더위쉼터,장소대여>공유누리 개방자원,"서울특별시 금천구 벚꽃로 73 (독산동, 금천현대아파트) 금천현대홈타운아파트경로당",126.8902351,37.4625026,,
금천구,안전,키워드:쉼터,[금천구 무더위쉼터] 신흥경로당 무더위쉼터,장소대여>공유누리 개방자원,서울특별시 금천구 금하로23길 155 (시흥동) 신흥경로당,126.9073572,37.4570196,,
금천구,안전,키워드:쉼터,[금천구 무더위쉼터] 세일경로당 무더위쉼터,장소대여>공유누리 개방자원,서울특별시 금천구 시흥대로147길 30-15 (독산동) 세일경로당,126.8961985,37.4747825,,
노원구,안전,키워드:사람,시장을여는사람들 노원점,음식점>술집>요리주점,서울특별시 노원구 노해로79길 6-19 2층 2호,127.0622495,37.6554569,,https://www.instagram.com/sijang_nowon
노원구,안전,키워드:백화점,롯데백화점 노원점,"쇼핑,유통>백화점",서울특별시 노원구 동일로 1414,127.0611155,37.6551094,,https://www.lotteshopping.com/store/main?cstrCd=0022
노원구,안전,키워드:백화점,구법원고로케 노원역2호점,"카페,디저트>베이커리",서울특별시 노원구 상계로1길 8 1층 102호,127.061785,37.6562219,,https://old-court-croquette.wywh.co.kr/
노원구,안전,키워드:백화점,예향정 노원점,음식점>한식,서울특별시 노원구 동일로217가길 31 2층,127.0586592,37.6531313,,https://naver.me/G5PHbqfV
노원구,안전,키워드:복합문화공간,숨쉬기 좋은 공간 숨숨,"문화,예술>복합문화공간",서울특별시 노원구 공릉로 168 3층,127.0800063,37.624997,,https://sumsumlib.cafe24.com/default/
노원구,안전,키워드:복합문화공간,LO ne 로네,"문화,예술>복합문화공간",서울특별시 노원구 동일로176길 39-9 1층,127.0769152,37.6207225,,
노원구,안전,키워드:복합문화공간,당현천당현마루,"문화,예술>복합문화공간",서울특별시 노원구 동일로 1322-70,127.0658892,37.6495019,,
노원구,안전,키워드:복합문화공간,문화살롱 5120,"문화,예술>복합문화공간",서울특별시 노원구 공릉로51길 20 B1,127.0757031,37.6283927,,https://www.instagram.com/salon_5120/
노원구,안전,키워드:복합문화공간,수락숲이랑,"문화,예술>복합문화공간",서울특별시 노원구 누원로 19,127.0524894,37.6873039,,
노원구,안전,키워드:느좋,카페 모노브릭,"음식점>카페,디저트",서울특별시 노원구 공릉로20길 5 1층 카페 모노브릭,127.0786149,37.6194274,,
노원구,안전,키워드:쉼터,쉼터왕족발,"한식>족발,보쌈",서울특별시 노원구 동일로 1680,127.0555729,37.678342,,
노원구,안전,키워드:쉼터,무더위쉼터 영축산어울마루,편의시설>무더위쉼터,서울특별시 노원구 광운로19가길 63-1 (영축산어울마루),127.059464,37.625352,,
노원구,안전,키워드:쉼터,쉼터당구장,"스포츠,오락>당구장",서울특별시 노원구 동일로 1083,127.0722332,37.6265518,,http://cafe.daum.net/shimtei/
노원구,안전,키워드:쉼터,무더위쉼터 월계한일1차아파트경로당,편의시설>무더위쉼터,서울특별시 노원구 석계로15길 25 (월계1차한일아파트 관리/노인정),127.061478,37.621905,,
노원구,안전,키워드:쉼터,무더위쉼터 학여울청구117동경로당,편의시설>무더위쉼터,"서울특별시 노원구 동일로207길 186 (하계동, 학여울청구아파트)",127.063134,37.633874,,
도봉구,안전,키워드:사람,저팔계사람잡네,한식>돼지고기구이,서울특별시 도봉구 덕릉로60길 5 1층,127.0398967,37.639946,,
도봉구,안전,키워드:사람,저팔계사람잡네 우이동점,한식>돼지고기구이,서울특별시 도봉구 삼양로 624,127.014103,37.6587952,,
도봉구,안전,키워드:사람,협동조합방아골사람들,"한식>백반,가정식",서울특별시 도봉구 시루봉로15라길 31,127.0331628,37.669285,,
도봉구,안전,키워드:백화점,아울렛DC백화점,"쇼핑,유통>종합생활용품",서울특별시 도봉구 덕릉로57길 30,127.037325,37.639913,,
도봉구,안전,키워드:복합문화공간,평화문화진지,"문화,예술>복합문화공간",서울특별시 도봉구 마들로 932,127.0471195,37.6908057,,http://culturebunker.or.kr
도봉구,안전,키워드:복합문화공간,씨드큐브 창동,"문화,예술>복합문화공간",서울특별시 도봉구 마들로13길 61 씨드큐브 창동,127.0497818,37.6541878,,
도봉구,안전,키워드:복합문화공간,서울청년센터 도봉,"문화,예술>복합문화공간",서울특별시 도봉구 마들로11길 75 서울청년센터 도봉,127.0487296,37.6531698,,https://www.instagram.com/youth_dobong
도봉구,안전,키워드:복합문화공간,메이커스쿨도봉,"문화,예술>복합문화공간",서울특별시 도봉구 마들로 656 1층 메이커스쿨도봉,127.047163,37.668768,,http://dbmakerschool.co.kr/index.html
도봉구,안전,키워드:복합문화공간,도봉구민청,"문화,예술>복합문화공간",서울특별시 도봉구 마들로 656 도봉구청,127.047163,37.668768,,https://www.instagram.com/9minchung
도봉구,안전,키워드:느좋,깡통소갈비살 도봉역본점,한식>소고기구이,서울특별시 도봉구 도봉로177길 9,127.0448684,37.6810658,,
도봉구,안전,키워드:쉼터,도봉산쉼터,음식점>한식,서울특별시 도봉구 도봉산3길 29,127.0439011,37.6860536,,
도봉구,안전,키워드:쉼터,도봉구민회관쉼터,"여행,명소>근린공원",서울특별시 도봉구 도봉로 552 도봉구민회관,127.038525,37.6544736,,
도봉구,안전,키워드:쉼터,커피한잔애,"음식점>카페,디저트",서울특별시 도봉구 덕릉로60길 68-5,127.04086,37.6370931,,
동대문구,안전,키워드:밝은,더모임,음식점>한식,서울특별시 동대문구 왕산로 6 B1,127.024479,37.5757275,,https://www.instagram.com/themoim9000?igsh=eTRiNHNkOW45dnd0
동대문구,안전,키워드:사람,백수씨 심야식당 회기본점,술집>요리주점,"서울특별시 동대문구 경희대로1길 8-15 1, 2층",127.0518684,37.5923974,,https://www.instagram.com/bagsoussi/
동대문구,안전,키워드:사람,신설동사람들,"술집>맥주,호프",서울특별시 동대문구 한빛로 33-2 1층 신설동사람들,127.0265242,37.578404,,
동대문구,안전,키워드:사람,자전거애사람들,"쇼핑,유통>자전거",서울특별시 동대문구 천호대로4길 21 파랑동 67호,127.0255028,37.5727132,,
동대문구,안전,키워드:사람,육회만드는사람들,음식점>일식>일식당,서울특별시 동대문구 답십리로66길 88 1층 106호,127.0663185,37.5690388,,
동대문구,안전,키워드:백화점,롯데백화점 청량리점,"쇼핑,유통>백화점",서울특별시 동대문구 왕산로 214,127.0475117,37.580736,,https://www.lotteshopping.com/store/main?cstrCd=0004
동대문구,안전,키워드:백화점,독립밀방 청량리,음식점>양식,서울특별시 동대문구 왕산로 214 청량리역사 3층 308호,127.0485255,37.5805062,,http://www.instagram.com/dongnip_millbang
동대문구,안전,키워드:백화점,애슐리퀸즈 롯데백화점 청량리점,음식점>패밀리레스토랑,서울특별시 동대문구 왕산로 214 롯데백화점 지하2층,127.0471851,37.5806253,,https://www.instagram.com/your_ashley/
동대문구,안전,키워드:백화점,로운 샤브샤브 청량리점,음식점>일식>샤브샤브,서울특별시 동대문구 왕산로 214 롯데백화점 청량리점 지하 2층,127.0473272,37.5805317,,https://bit.ly/로운청량리실시간대기
동대문구,안전,키워드:복합문화공간,서울한방진흥센터,"문화,예술>복합문화공간",서울특별시 동대문구 약령중앙로 26 서울한방진흥센터,127.0376805,37.580578,,http://kmedi.ddm.go.kr/
동대문구,안전,키워드:복합문화공간,금성전파사,"문화,예술>복합문화공간",서울특별시 동대문구 고산자로36길 3 경동시장 본관 3층,127.0386676,37.5796891,,https://goldstar.lge.co.kr
동대문구,안전,키워드:복합문화공간,김희수아트센터,"문화,예술>복합문화공간",서울특별시 동대문구 홍릉로 118 김희수아트센터,127.0428609,37.5907933,,http://www.soorimcf.or.kr
동대문구,안전,키워드:복합문화공간,서울청년센터 동대문,"문화,예술>복합문화공간",서울특별시 동대문구 회기로 165 서울청년센터 동대문,127.0545824,37.5906683,,https://blog.naver.com/syc_ddm
동대문구,안전,키워드:복합문화공간,넛지스 북카페 복합문화공간,"카페,디저트>북카페",서울특별시 동대문구 답십리로60길 1 1층,127.065566,37.5725685,,https://blog.naver.com/mamdale
동대문구,안전,키워드:안정,안정기업,"서비스,산업>기업",서울특별시 동대문구 천호대로17길 20,127.0324879,37.5749733,,
동대문구,안전,키워드:느좋,별밤 회기역점,술집>요리주점,서울특별시 동대문구 회기로 160-2 1층,127.053865,37.5905998,,https://www.instagram.com/starbam0115
동대문구,안전,키워드:쉼터,우리동네연구소,"문화,예술>복합문화공간",서울특별시 동대문구 이문로16길 21 지층,127.0598362,37.594306,,https://www.instagram.com/wooridongnelab
동대문구,안전,키워드:쉼터,무더위쉼터 동답한신아파트경로당,편의시설>무더위쉼터,서울특별시 동대문구 답십리로 210-30 (동답한신아파트),127.062579,37.57081,,
동작구,안전,키워드:사람,농장사람들 상도본점,"한식>육류,고기요리",서울특별시 동작구 상도로 230 농장사람들 상도본점,126.9442228,37.5050863,,https://instagram.com/people.of.ranch?igshid=47bappmoutin
동작구,안전,키워드:사람,농장사람들 흑석역점,"육류,고기요리>정육식당",서울특별시 동작구 현충로 92 2층,126.9640921,37.5081374,,
동작구,안전,키워드:백화점,뭉텅 신대방삼거리역점,"육류,고기요리>돼지고기구이",서울특별시 동작구 상도로 54 1층,126.9263816,37.4996403,,https://www.instagram.com/moongteong_sindaebang?igsh=bWwwOWNjdXE1anZv
동작구,안전,키워드:백화점,보라매 궁중삼계탕,"한식>백숙,삼계탕","서울특별시 동작구 보라매로5길 43 보라매삼성쉐르빌 117호, 118호",126.9233346,37.4912307,,https://www.instagram.com/boramae_gungjung?igsh=b3M0YmxtbGQ0dmoz
동작구,안전,키워드:복합문화공간,서울여성플라자,"문화,예술>복합문화공간",서울특별시 동작구 여의대방로54길 18,126.9272598,37.5117734,,
동작구,안전,키워드:복합문화공간,사당연습실 호프만,"서비스,산업>장소대여",서울특별시 동작구 동작대로3길 40 지하,126.9793363,37.4787811,,https://cafe.naver.com/hofmannhall1/16
동작구,안전,키워드:복합문화공간,대륙서점,"쇼핑,유통>서점",서울특별시 동작구 성대로 40 1층대륙서점,126.933292,37.498981,,https://www.instagram.com/daerukbooks?igshid=l12z4ktyz22s
동작구,안전,키워드:복합문화공간,첼라연습실,"서비스,산업>장소대여",서울특별시 동작구 동작대로3길 40 지하,126.979343,37.4787729,,https://cafe.naver.com/hofmannhall1/17
동작구,안전,키워드:복합문화공간,CCB 스탠다드,"문화,예술>복합문화공간",서울특별시 동작구 서달로 161-1 2층,126.9622591,37.5078135,,https://www.classic-culture.com
동작구,안전,키워드:느좋,한울갈비,"한식>육류,고기요리",서울특별시 동작구 동작대로1길 9 2호선 8번 출구로 나오신 후 좌측 골목 20m 전방 좌측에 위치. 4호선 9번 출구로 나오신 후 앞 우측 골목,126.9807888,37.4772321,,
동작구,안전,키워드:느좋,보라매 팔팔해물탕,"한식>매운탕,해물탕",서울특별시 동작구 여의대방로22가길 10 1층 팔팔해물탕,126.9199669,37.4972413,,https://blog.naver.com/cjswopht88
동작구,안전,키워드:느좋,레크레오 브런치 카페,음식점>브런치,서울특별시 동작구 여의대방로22나길 35 1층,126.9217693,37.4965509,,https://www.instagram.com/rec_reo_
동작구,안전,키워드:느좋,"그래, 여기","음식점>카페,디저트","서울특별시 동작구 동작대로9길 22 1층 카페 그래,여기",126.9803417,37.480697,,
동작구,안전,키워드:쉼터,거북이 쉼터 카페,"카페,디저트>카페",서울특별시 동작구 양녕로26길 20 1층 거북이쉼터카페,126.944057,37.4977175,,
동작구,안전,키워드:쉼터,숲속작은도서관 글헤는숲,"교육,학문>도서관",,126.9574997,37.4996937,,https://cafe.naver.com/dreamdotory
동작구,안전,키워드:쉼터,쉼터호프,"술집>맥주,호프","서울특별시 동작구 여의대방로 250 B1층 (대방동,대림쇼핑타운)",126.924807,37.5087258,,
동작구,안전,키워드:쉼터,성대골쉼터,"레져,체육시설>공원",,126.9368299,37.4976328,,
동작구,안전,키워드:야경,사육신역사공원,"여행,명소>근린공원",서울특별시 동작구 노량진로 191,126.948636,37.5137049,,
마포구,안전,키워드:밝은,월드컵컨벤션,"연애,결혼>예식장",서울특별시 마포구 월드컵로 240 2층 (성산동 서울월드컵경기장 서측),126.8962862,37.5685783,,http://wocon.co.kr
마포구,안전,키워드:사람,시장을여는사람들 홍대점,음식점>술집>요리주점,서울특별시 마포구 잔다리로 5-1 2층,126.9223103,37.5505526,,https://www.instagram.com/sijang_people
마포구,안전,키워드:사람,사람사는이야기 합정점,술집>요리주점,서울특별시 마포구 어울마당로5길 52 사람사는이야기 합정점,126.9179627,37.5500443,,https://www.instagram.com/442_hapjeong
마포구,안전,키워드:사람,안녕낯선사람,"카페,디저트>카페","서울특별시 마포구 어울마당로5길 40 1층 카페 안녕,낯선사람",126.9185288,37.5497944,,https://www.instagram.com/cafehellostranger_official
마포구,안전,키워드:사람,두사람사진관,"생활,편의>사진,스튜디오",서울특별시 마포구 월드컵북로20안길 14,126.9143574,37.5649556,,https://pf.kakao.com/_itWAG
마포구,안전,키워드:사람,사람을지키는사람들,"스포츠,오락>무예,격투기",서울특별시 마포구 성산로2길 21,126.9063021,37.5634323,,
마포구,안전,키워드:백화점,AK PLAZA 홍대,"쇼핑,유통>백화점",서울특별시 마포구 양화로 188,126.9260949,37.5581871,,https://www.instagram.com/akplaza_hongdae
마포구,안전,키워드:백화점,퐁타이 신촌본점,음식점>태국음식,서울특별시 마포구 백범로 8 2층,126.9367693,37.5538783,,https://www.instagram.com/pongthaii
마포구,안전,키워드:백화점,굿즈모먼트,"쇼핑,유통>백화점",서울특별시 마포구 성미산로 151-1 1~4층,126.9232482,37.564486,,https://www.instagram.com/goods_moment/
마포구,안전,키워드:복합문화공간,KT&amp;G 상상마당,"문화,예술>복합문화공간",서울특별시 마포구 어울마당로 65 상상마당빌딩,126.9210617,37.5509494,,https://www.sangsangmadang.com/
마포구,안전,키워드:복합문화공간,문화비축기지,"문화,예술>복합문화공간",서울특별시 마포구 증산로 87,126.8941191,37.571105,,https://blog.naver.com/culturetank
마포구,안전,키워드:복합문화공간,무대륙,"문화,예술>복합문화공간",서울특별시 마포구 토정로5길 12,126.9183601,37.5460292,,
마포구,안전,키워드:복합문화공간,KB청춘마루,"문화,예술>복합문화공간",서울특별시 마포구 홍익로 18 KB청춘마루,126.9229909,37.5542176,,https://www.instagram.com/kbkbkb_official/
마포구,안전,키워드:복합문화공간,뽈랄라백화점,"문화,예술>복합문화공간",서울특별시 마포구 와우산로29길 27 지하 102호,126.9282753,37.5551696,,http://www.instagram.com/pollalla_store
마포구,안전,키워드:안정,아이플러스,"교육,학문>교육원,교육센터",서울특별시 마포구 월드컵북로 98 202호,126.9148328,37.5623709,,http://cafe.naver.com/eduiplus
마포구,안전,키워드:느좋,홍대 육지,"한식>육류,고기요리",서울특별시 마포구 독막로3길 34 1F,126.9174273,37.5497425,,https://www.instagram.com/plzloveyookji
마포구,안전,키워드:느좋,연남동와이탑,음식점>양식,"서울특별시 마포구 성미산로 163 2층, 3층",126.9242773,37.5649025,,https://www.instagram.com/yeonnamdong_ytop
마포구,안전,키워드:느좋,누크녹 연남점,"음식점>카페,디저트",서울특별시 마포구 성미산로 190-31 2층,126.9258367,37.5625386,,https://www.instagram.com/cafe.nuknok
마포구,안전,키워드:느좋,주락간,술집>요리주점,서울특별시 마포구 독막로3길 27 1.5층,126.9170265,37.5496302,,https://www.instagram.com/jurak_gan/
마포구,안전,키워드:느좋,연남 잠수함,한식>생선회,서울특별시 마포구 동교로38길 41 지하1층,126.9258576,37.5610934,,https://www.instagram.com/Yeonnam_Jamsuham
마포구,안전,키워드:쉼터,상수동쉼터,"여행,명소>근린공원",,126.9253503,37.54566,,
마포구,안전,키워드:쉼터,책쉼터스페이스,"교육,학문>도서관",서울특별시 마포구 상암산로1길 71-7,126.8832628,37.5796294,,
마포구,안전,키워드:쉼터,한파쉼터 마포아트센터,편의시설>한파쉼터,서울특별시 마포구 대흥로20길 28 (마포아트센터),126.946052,37.550298,,
마포구,안전,키워드:쉼터,무더위쉼터 덕성경로당,편의시설>무더위쉼터,서울특별시 마포구 임정로15길 6-5,126.9572,37.543691,,
마포구,안전,키워드:야경,망원 한강공원,"여행,명소>시민공원",서울특별시 마포구 마포나루길 467 한강공원망원지구사무소,126.8952798,37.5553018,,http://hangang.seoul.go.kr/archives/46737
마포구,안전,키워드:야경,노을공원,"여행,명소>도시,테마공원",서울특별시 마포구 하늘공원로 108-2,126.8748643,37.5746111,,http://parks.seoul.go.kr/template/sub/worldcuppark.do
마포구,안전,키워드:야경,로그아웃,"음식점>카페,디저트",서울특별시 마포구 마포대로4다길 31 9층,126.944351,37.535684,,
마포구,안전,키워드:야경,마포인트,"여행,명소>레저,테마",서울특별시 마포구 마포나루길 435,126.8957586,37.5536629,,
서대문구,안전,키워드:사람,시장을여는사람들 신촌점,음식점>술집>요리주점,서울특별시 서대문구 연세로7안길 10-4 2층,126.9364174,37.5582638,,https://www.instagram.com/sijang_sc
서대문구,안전,키워드:사람,사람정거장,"음식점>카페,디저트",서울특별시 서대문구 북아현로 65-1 1층,126.9549291,37.5630423,,http://www.instagram.com/cafe_human_stop
서대문구,안전,키워드:사람,미니를사랑하는사람들,"쇼핑,유통>장난감",서울특별시 서대문구 연희로14길 6,126.9317422,37.5671761,,http://www.lovemini.co.kr/
서대문구,안전,키워드:백화점,현대백화점 신촌점,"쇼핑,유통>백화점",서울특별시 서대문구 신촌로 83 현대백화점신촌점,126.935806,37.5560269,,https://www.instagram.com/thehyundai_sinchon/
서대문구,안전,키워드:백화점,현대백화점 신촌점 유플렉스,"쇼핑,유통>백화점",서울특별시 서대문구 연세로 13 현대백화점신촌점유플렉스,126.9365824,37.5567506,,https://blog.naver.com/jadehall
서대문구,안전,키워드:백화점,스시이안앤 신촌점,"음식점>일식>초밥,롤","서울특별시 서대문구 신촌로 109 2층 205, 206호",126.9380184,37.5557255,,
서대문구,안전,키워드:백화점,스시도쿠 현대백화점 신촌점,음식점>일식>일식당,서울특별시 서대문구 신촌로 83 신촌점 10층,126.9356172,37.5559008,,
서대문구,안전,키워드:백화점,백소정 신촌점,음식점>일식>일식당,서울특별시 서대문구 명물길 27-9 1층,126.9378318,37.5584926,,https://baeksojeong.com/
서대문구,안전,키워드:복합문화공간,시도 플레이스,"음식점>카페,디저트",서울특별시 서대문구 연희맛로 7-7 시도 플레이스 1~2F,126.9283474,37.5662825,,https://www.instagram.com/siiiido_place
서대문구,안전,키워드:복합문화공간,청년예술청 SAPY,"문화,예술>복합문화공간",서울특별시 서대문구 경기대로 26-26 어바니엘 충정로 102동 지하2층 청년예술청 SAPY,126.9624686,37.56112,,http://sapy.kr
서대문구,안전,키워드:복합문화공간,신촌 청년푸드스토어,"쇼핑,유통>쇼핑센터,할인매장",서울특별시 서대문구 신촌역로 22-5 신촌 청년푸드스토어,126.943028,37.5589419,,https://syfs.kr/
서대문구,안전,키워드:복합문화공간,파크먼트연희 A동,"문화,예술>복합문화공간",서울특별시 서대문구 연희로11가길 48-23,126.9269732,37.5671139,,https://www.instagram.com/parkment.in.local/
서대문구,안전,키워드:복합문화공간,연희예술극장,"문화,예술>복합문화공간",서울특별시 서대문구 연희맛로 2-3 B1 연희예술극장,126.9285527,37.5657054,,http://yeonheeart.com
서대문구,안전,키워드:안정,휴룸,전문디자인>제품디자인,서울특별시 서대문구 경기대로 47 102호,126.9623942,37.5638227,,http://phewroom.com/
서대문구,안전,키워드:느좋,도우클럽 연희본점,음식점>브런치,서울특별시 서대문구 연희맛로 5 지하1층 101호,126.9285068,37.5661817,,https://www.instagram.com/doughclub.seoul?igsh=ZHBoa2NuYWl4cWpw
서대문구,안전,키워드:느좋,소우 오뎅,술집>이자카야,서울특별시 서대문구 연세로7안길 10-1,126.9361897,37.5581668,,
서대문구,안전,키워드:쉼터,연희숲속쉼터,"레져,체육시설>공원",,126.9390247,37.5802993,,
서대문구,안전,키워드:쉼터,쉼터,"술집>맥주,호프",서울특별시 서대문구 북아현로2안길 6,126.95688,37.558195,,
서대문구,안전,키워드:쉼터,무악정,"레져,체육시설>공원",,126.9434496,37.5746095,,
서대문구,안전,키워드:쉼터,이화쉼터,"문화,예술>문화시설",,126.9441516,37.5595579,,
서대문구,안전,키워드:야경,서대문 안산,"여행,명소>산",,126.9464867,37.5770164,,
서대문구,안전,키워드:야경,불광천,"여행,명소>강,하천",,126.9113648,37.5848787,,
서초구,안전,키워드:사람,사람사는이야기 강남점,술집>요리주점,서울특별시 서초구 강남대로65길 12 1층 102호~109호,127.0247403,37.5004072,,https://www.instagram.com/gangnam_442/
서초구,안전,키워드:사람,사람사는 고깃집 김일도 서초구청점,"한식>육류,고기요리",서울특별시 서초구 남부순환로347길 23,127.0313205,37.4854858,,https://www.gorillafnd.co.kr/
서초구,안전,키워드:사람,보통사람들,술집>포장마차,서울특별시 서초구 사평대로55길 133,127.0200867,37.5096611,,
서초구,안전,키워드:백화점,신세계백화점 강남점,"쇼핑,유통>백화점",서울특별시 서초구 신반포로 176,127.0042487,37.5050011,,http://deptmapp.shinsegae.com/store/store/storeMain.jsp?storeCode=D02
서초구,안전,키워드:백화점,샤넬 신세계백화점 강남점 샤넬 부티크,"쇼핑,유통>패션",서울특별시 서초구 신반포로 176 신세계백화점 강남점 2층,127.004752,37.5038952,,https://www.chanel.com/kr/
서초구,안전,키워드:복합문화공간,1101,"문화,예술>전시관",서울특별시 서초구 남부순환로 2406 예술의전당,127.0133982,37.4802543,,
서초구,안전,키워드:복합문화공간,센트럴시티,"쇼핑,유통>상가,아케이드",서울특별시 서초구 신반포로 176,127.0040974,37.504222,,http://www.shinsegaecentralcity.com
서초구,안전,키워드:복합문화공간,예술의전당 오페라하우스 자유소극장,"문화,예술>공연,연극시설",서울특별시 서초구 남부순환로 2406 예술의전당,127.0140827,37.4797499,,
서초구,안전,키워드:복합문화공간,라시따델라모다,"쇼핑,유통>쇼핑센터,할인매장",서울특별시 서초구 매헌로 16 3101호,127.0366233,37.4631951,,http://www.lacittadellamoda.co.kr
서초구,안전,키워드:복합문화공간,문엔트리,"문화,예술>복합문화공간",서울특별시 서초구 방배천로18길 10 연안회관 2층,126.9832406,37.4825797,,https://moonntree.creatorlink.net
서초구,안전,키워드:느좋,온도차이,"음식점>카페,디저트",서울특별시 서초구 방배천로18길 32 104호,126.9846189,37.4826004,,https://www.instagram.com/ondocha_e
서초구,안전,키워드:느좋,그라츠커피랩 반포점,"음식점>카페,디저트",서울특별시 서초구 신반포로 200 강남터미널지하쇼핑몰 G-023호,127.0012113,37.5049009,,https://www.instagram.com/grazcoffeelab/
서초구,안전,키워드:느좋,스시도쿠젠 신세계백화점강남점,음식점>일식>일식당,서울특별시 서초구 신반포로 176 신세계백화점강남점 지하1층,127.004752,37.5038952,,
서초구,안전,키워드:쉼터,어르신여가교육센터,"교육,학문>교육원,교육센터",서울특별시 서초구 염곡말길 9,127.0507412,37.4618795,,https://blog.naver.com/scseniorcenter
서초구,안전,키워드:쉼터,무더위쉼터 미래공인중개사사무소쉼터2,편의시설>무더위쉼터,서울특별시 서초구 서운로 207 (삼호종합상가),127.021697,37.501486,,
서초구,안전,키워드:쉼터,무더위쉼터 잔디마을경로당,편의시설>무더위쉼터,서울특별시 서초구 매헌로6길 58 (양재동),127.0355057,37.4662508,,
서초구,안전,키워드:쉼터,한파쉼터 서초구립기녕당경로당,편의시설>한파쉼터,서울특별시 서초구 방배중앙로 159-6,126.9859304,37.493331,,
서초구,안전,키워드:쉼터,무더위쉼터 호반써밋서초파크뷰아파트경로당,편의시설>무더위쉼터,서울특별시 서초구 양재대로2길 11 (호반써밋서초파크뷰 주민복지관1),127.025138,37.458926,,
서초구,안전,키워드:야경,반포 한강공원,"여행,명소>시민공원",서울특별시 서초구 신반포로11길 40 한강공원 반포 안내센터,126.995032,37.5100172,,http://hangang.seoul.go.kr/archives/46727
서초구,안전,키워드:야경,잠원 한강공원,"여행,명소>시민공원",,127.0124624,37.5220602,,http://hangang.seoul.go.kr/archives/46678
서초구,안전,키워드:야경,반포대교달빛무지개분수,"여행,명소>지역명소",서울특별시 서초구,126.9984326,37.5126585,,https://hangang.seoul.go.kr/www/bbsPost/30/list.do#list/1
서초구,안전,키워드:야경,구룡산,"여행,명소>산",,127.061567,37.4689471,,
서초구,안전,키워드:야경,서초옥상,술집>와인,서울특별시 서초구 서초대로 264 1층,127.0107641,37.4925387,,https://catchtable.co.kr/seocho_oaksang
성동구,안전,키워드:밝은,밝은창,"쇼핑,유통>문,창문",서울특별시 성동구 서울숲2길 45,127.043595,37.5464455,,
성동구,안전,키워드:사람,사진관 보통사람들,"생활,편의>사진,스튜디오",서울특별시 성동구 왕십리로31나길 18 한신무학상가 114호 **1층 복도끝**,127.0280873,37.5630312,,https://www.instagram.com/botonpp
성동구,안전,키워드:사람,한양 사람 모이는 곳,음식점>한식,서울특별시 성동구 무학봉28길 3-1 102호,127.0326673,37.5624187,,https://www.instagram.com/hanyang_1394?igsh=aXBiYzkzMTU5d3E=
성동구,안전,키워드:대형 쇼핑몰,엔터식스 왕십리역점,"쇼핑,유통>상가,아케이드",서울특별시 성동구 왕십리광장로 17,127.0381932,37.5619152,,http://store.enter6.co.kr/
성동구,안전,키워드:백화점,AK플라자 성수,"쇼핑,유통>백화점",서울특별시 성동구 왕십리로 50,127.0449128,37.5418864,,https://blog.naver.com/akplaza_seongsu
성동구,안전,키워드:백화점,가자주류 한양대점,"쇼핑,유통>주류",서울특별시 성동구 마조로 33 1층,127.0411643,37.5605882,,https://www.instagram.com/https://instagram.com/kaja_jinstore?igshid=MmIzYWVlNDQ5Yg==
성동구,안전,키워드:복합문화공간,티팩토리 성수,"문화,예술>복합문화공간",서울특별시 성동구 연무장1길 7-1,127.0506061,37.5448362,,https://m.site.naver.com/263IM
성동구,안전,키워드:복합문화공간,에스팩토리,"문화,예술>복합문화공간",서울특별시 성동구 연무장15길 11 SFACTORY,127.0594889,37.5426597,,https://www.instagram.com/sfactory_seongsu/
성동구,안전,키워드:복합문화공간,성수연방,"문화,예술>복합문화공간",서울특별시 성동구 성수이로14길 14 성수연방,127.0570225,37.5416586,,https://sites.google.com/view/ssyb
성동구,안전,키워드:복합문화공간,언더스탠드에비뉴,"문화,예술>복합문화공간",서울특별시 성동구 왕십리로 63 언더스탠드에비뉴,127.0435736,37.543549,,https://www.instagram.com/understand_social/
성동구,안전,키워드:복합문화공간,LCDC SEOUL,"문화,예술>복합문화공간",서울특별시 성동구 연무장17길 10,127.0614308,37.5415206,,https://www.instagram.com/lcdc.seoul
성동구,안전,키워드:안정,무더위쉼터 안정경로당,편의시설>무더위쉼터,서울특별시 성동구 무학봉12길 3-11,127.029587,37.5604005,,
성동구,안전,키워드:느좋,스시도쿠 더성수,음식점>일식>일식당,서울특별시 성동구 서울숲6길 13 1층 스시도쿠 더성수,127.0430489,37.5477014,,https://catchtable.co.kr/sushidoku_seongsu
성동구,안전,키워드:느좋,성수다락,음식점>양식,서울특별시 성동구 뚝섬로9길 20 2층,127.0562588,37.5398955,,http://www.instagram.com/seongsudarak
성동구,안전,키워드:느좋,bd버거 성수역연무장길 점심저녁,음식점>햄버거,서울특별시 성동구 성수이로14길 7 2층,127.0564655,37.5410965,,https://www.instagram.com/bdburger.official
성동구,안전,키워드:느좋,하이라인 성수카페,"음식점>카페,디저트",서울특별시 성동구 성덕정9길 10 2층 하이라인성수카페,127.0498827,37.5390219,,https://blog.naver.com/highlinecafe
성동구,안전,키워드:느좋,브리비트 성수,음식점>양식,서울특별시 성동구 상원6길 5-1 1층,127.0489036,37.5486686,,https://catchtable.co.kr/bribeet_official
성동구,안전,키워드:쉼터,응봉산 팔각정,"레져,체육시설>공원",,127.0298879,37.5478769,,
성동구,안전,키워드:쉼터,용비쉼터,"생활,편의>편의점",서울특별시 성동구 중랑천서자전거길 5 용비쉼터,127.0304152,37.5463083,,
성동구,안전,키워드:쉼터,용비쉼터정원,"여행,명소>근린공원",서울특별시 성동구,127.0310182,37.5464359,,
성동구,안전,키워드:쉼터,용비교아래쉼터,"레져,체육시설>공원",,127.0307446,37.5460746,,
성동구,안전,키워드:쉼터,대현산숲속책쉼터,"문화,예술>문화시설",서울특별시 성동구 독서당로57가길 24,127.0291098,37.5529794,,
성동구,안전,키워드:야경,응봉산,"여행,명소>산",,127.029725,37.5478268,,
성북구,안전,키워드:밝은,달밝은집,"한식>육류,고기요리",서울특별시 성북구 종암로 19 102호,127.0361517,37.5921091,,
성북구,안전,키워드:사람,의정부사람,술집>요리주점,서울특별시 성북구 정릉로23길 52 1층,127.0094635,37.6079958,,https://www.instagram.com/
성북구,안전,키워드:사람,동네사람,음식점>한식,서울특별시 성북구 보국문로 19,127.0107827,37.6063344,,https://www.instagram.com/dongnesaram_
성북구,안전,키워드:사람,성북동사람들박앤윤,음식점>한식,서울특별시 성북구 대사관로 40,126.9885799,37.5958885,,
성북구,안전,키워드:백화점,현대백화점 미아점,"쇼핑,유통>백화점",서울특별시 성북구 동소문로 315 현대백화점미아점,127.0287466,37.6084082,,http://www.ehyundai.com/newPortal/DP/DP000000_V.do?branchCd=B00141000
성북구,안전,키워드:백화점,스타벅스 현대미아점,"카페,디저트>카페",서울특별시 성북구 동소문로 315 (길음동) 지하1층,127.0291884,37.6082259,,http://www.starbucks.co.kr/
성북구,안전,키워드:백화점,만추 현대백화점 미아점,중식>중식당,서울특별시 성북구 동소문로 315 지하1층,127.0290846,37.6084393,,
성북구,안전,키워드:복합문화공간,삼청각,"문화,예술>복합문화공간",서울특별시 성북구 대사관로 3,126.9842617,37.5972156,,https://blog.naver.com/dg_samchunggak
성북구,안전,키워드:복합문화공간,서울연극창작센터,"문화,예술>복합문화공간",서울특별시 성북구 성북로 8,127.0060915,37.589215,,https://stccenter.or.kr/user/main/
성북구,안전,키워드:복합문화공간,청년공간 동선이음,"문화,예술>복합문화공간",서울특별시 성북구 아리랑로 50,127.0150654,37.5973592,,https://linktr.ee/dongseonieum
성북구,안전,키워드:복합문화공간,문화공간이육사,"문화,예술>복합문화공간",서울특별시 성북구 종암로21가길 36-1,127.0326533,37.5981337,,https://www.sb.go.kr/literature/culture/introduce.jsp
성북구,안전,키워드:복합문화공간,서울성북 미디어문화마루,"문화,예술>복합문화공간",서울특별시 성북구 길음로7길 20 서울성북 미디어문화마루,127.0221148,37.6037739,,
성북구,안전,키워드:느좋,니뽕내뽕 성신여대점,음식점>중식당,서울특별시 성북구 동소문로20길 37-19 2층,127.0178139,37.5912379,,https://www.instagram.com/p/C5QUIlSSghl/?igsh=ZzJyZ2NsYmRjNTAw
성북구,안전,키워드:쉼터,성북역사문화센터,"여행,명소>관광안내소",서울특별시 성북구 성북로21길 31,126.9974577,37.5925863,,https://blog.naver.com/sbhistoryc
성북구,안전,키워드:쉼터,성북역사문화공원,"여행,명소>도시,테마공원",,126.9979385,37.592464,,
성북구,안전,키워드:쉼터,정릉현대힐스테이트3차아파트쉼터,"레져,체육시설>운동장",서울특별시 성북구 보국문로 116,127.0082059,37.6143627,,
성북구,안전,키워드:쉼터,정릉4동 주민센터 무더위쉼터,장소대여>공유누리 개방자원,서울특별시 성북구 보국문로 106-1 (정릉동) 정릉4동 주민센터 1층 민원실,127.0069798,37.6133387,,
송파구,안전,키워드:사람,농장사람들,"한식>육류,고기요리",서울특별시 송파구 동남로 200-1,127.1309905,37.4952413,,
송파구,안전,키워드:사람,PT 스튜디오 건강한사람들 위례점,"스포츠,오락>스포츠시설",서울특별시 송파구 위례광장로 290 상가동 B-15호,127.1428384,37.4747277,,https://www.instagram.com/healthypeople1000
송파구,안전,키워드:백화점,NC백화점 송파점,"쇼핑,유통>백화점",서울특별시 송파구 충민로 66 가든파이브라이프,127.1257987,37.477092,,https://www.elandretail.com/store01.do?branchID=00110008&lang=000600KO
송파구,안전,키워드:백화점,롯데월드몰,"쇼핑,유통>쇼핑복합시설",서울특별시 송파구 올림픽로 300 롯데월드몰,127.1040795,37.5134935,,https://www.lotteshopping.com/store/main?cstrCd=0409
송파구,안전,키워드:백화점,롯데백화점 잠실점,"쇼핑,유통>백화점",서울특별시 송파구 올림픽로 240 롯데백화점 잠실점,127.0993826,37.5121547,,https://www.lotteshopping.com/store/main?cstrCd=0002
송파구,안전,키워드:백화점,모던하우스 NC백화점송파점,"쇼핑,유통>종합생활용품",서울특별시 송파구 충민로 66 가든파이브라이프,127.1258757,37.477163,,
송파구,안전,키워드:복합문화공간,롯데월드 웰빙센터,"문화,예술>복합문화공간",서울특별시 송파구 올림픽로 240 롯데월드,127.0966297,37.5102766,,
송파구,안전,키워드:복합문화공간,서울책보고,"쇼핑,유통>서점",서울특별시 송파구 오금로 1 서울책보고,127.1037921,37.522188,,http://www.seoulbookbogo.kr
송파구,안전,키워드:복합문화공간,어바웃 프로젝트라운지,"음식점>카페,디저트",서울특별시 송파구 올림픽로 300 롯데월드타워 1층 다이버홀,127.1025403,37.5125018,,https://about-projectlounge.com/
송파구,안전,키워드:복합문화공간,문화실험공간 호수,"문화,예술>복합문화공간",서울특별시 송파구 송파나루길 256,127.1011199,37.5102667,,https://blog.naver.com/exp_space_hosu
송파구,안전,키워드:복합문화공간,엠아트센터,"문화,예술>복합문화공간",서울특별시 송파구 중대로 80 문정프라자 2층 엠아트센터,127.1178428,37.491762,,https://blog.naver.com/mart-
송파구,안전,키워드:안정,브룩스 올림픽공원 쇼룸,"쇼핑,유통>신발",서울특별시 송파구 위례성대로 106-1 1층 브룩스 올림픽공원 쇼룸,127.1235648,37.5131303,,https://www.brooksrunning.co.kr
송파구,안전,키워드:안정,박세니마인드코칭,"교육,학문>교육원,교육센터",서울특별시 송파구 올림픽로35다길 32 예전빌딩 3층,127.1020545,37.5150259,,http://parksenny.com
송파구,안전,키워드:안정,쓰리스텝스,"스포츠,레크레이션교육>야구교실",서울특별시 송파구 동남로 163 이슨빌딩 지하1층,127.1283029,37.4928733,,https://smartstore.naver.com/baseballacademy
송파구,안전,키워드:느좋,신선계 춘천숯불닭갈비 잠실새내본점,"한식>육류,고기요리",서울특별시 송파구 백제고분로9길 40 1층,127.0834945,37.5097754,,https://www.instagram.com/shin.sungye/?igshid=YmMyMTA2M2Y%3D
송파구,안전,키워드:느좋,오일리버거 잠실석촌호수직영점,음식점>햄버거,서울특별시 송파구 백제고분로41길 5 1~2층,127.1084639,37.5067113,,https://www.instagram.com/oilyburger
송파구,안전,키워드:느좋,세븐패티버거 송리단길점,음식점>햄버거,서울특별시 송파구 오금로18길 12 1층 102호,127.110407,37.509898,,https://www.instagram.com/se7enpattyburger_songpa
송파구,안전,키워드:느좋,한점,한식>생선회,서울특별시 송파구 백제고분로9길 19 1층,127.0812104,37.5095656,,https://app.catchtable.co.kr/ct/shop/hanheom?from=share&type=DINING
송파구,안전,키워드:느좋,나물비빔밥&amp;북엇국,음식점>한식,서울특별시 송파구 삼전로7길 11 101호,127.0873902,37.5053498,,
송파구,안전,키워드:쉼터,팔각정,"레져,체육시설>공원",,127.1178466,37.5233352,,
송파구,안전,키워드:쉼터,성내천쉼터,"레져,체육시설>공원",,127.147832,37.501241,,
송파구,안전,키워드:쉼터,현대아파트앞쉼터,"레져,체육시설>공원",,127.1191314,37.5285919,,
송파구,안전,키워드:야경,시그니엘 서울 바81,술집>바(BAR),서울특별시 송파구 올림픽로 300 롯데월드타워 81층 Bar 81,127.1027273,37.5125735,,https://app.catchtable.co.kr/ct/shop/bar81
송파구,안전,키워드:야경,루프탑 파티룸 다즐플레이스,"서비스,산업>장소대여",서울특별시 송파구 성내천로8길 3 5층,127.1361103,37.5022103,,
송파구,안전,키워드:야경,시크릿한강,"음식점>카페,디저트",서울특별시 송파구 백제고분로 2,127.076014,37.5194184,,https://blog.naver.com/thesecretcafe
송파구,안전,키워드:야경,GATE,술집>요리주점,서울특별시 송파구 오금로11길 45 2층 201호,127.1121012,37.5157735,,
송파구,안전,키워드:야경,더로즈 송파잠실점,"지원,대행>이벤트,파티",서울특별시 송파구 오금로 87 잠실리시온 2012호,127.107384,37.5146238,,http://www.the-rose.co.kr/songpa
양천구,안전,키워드:사람,사람중심케어요양보호사교육원,"교육,학문>교육원,교육센터",서울특별시 양천구 신월로 170 3층(신곡시장 입구),126.8424863,37.5181646,,http://humancenter.ad-media.kr
양천구,안전,키워드:백화점,현대백화점 목동점,"쇼핑,유통>백화점",서울특별시 양천구 목동동로 257 현대백화점목동점,126.875287,37.5264557,,https://www.instagram.com/thehyundai_mokdong/
양천구,안전,키워드:백화점,행복한백화점,"쇼핑,유통>백화점",서울특별시 양천구 목동동로 309 한국중소벤처기업유통원,126.8760392,37.5292192,,https://www.instagram.com/haengbok_department_store/
양천구,안전,키워드:백화점,가헌생갈비 목동본점,"한식>육류,고기요리",서울특별시 양천구 목동동로 222-3 1층,126.8721525,37.5254432,,
양천구,안전,키워드:백화점,정돈 현대백화점 목동점,음식점>일식>돈가스,서울특별시 양천구 목동동로 257 현대백화점 지하2층 정돈,126.8748784,37.5263823,,
양천구,안전,키워드:복합문화공간,건강힐링문화관,"문화,예술>복합문화공간",서울특별시 양천구 남부순환로83길 54,126.8458552,37.5177402,,
양천구,안전,키워드:복합문화공간,서울청년센터 양천,"문화,예술>복합문화공간",서울특별시 양천구 오목로 359 서울청년센터 양천,126.8773101,37.524597,,https://www.instagram.com/syc_yangcheon
양천구,안전,키워드:복합문화공간,큐레이터의아뜰리에,"문화,예술>갤러리,화랑",서울특별시 양천구 가로공원로 105 정헌빌딩 4층,126.8276788,37.5360175,,https://www.curator-atelier49.com/
양천구,안전,키워드:복합문화공간,테이블220,"문화,예술>복합문화공간",서울특별시 양천구 신월로 220 101호,126.846473,37.5214805,,http://instagram.com/table_220
양천구,안전,키워드:복합문화공간,오알아이,"문화,예술>복합문화공간",서울특별시 양천구 신월로36길 21 1F Ori,126.8587469,37.5198089,,http://instagram.com/0ri.____
양천구,안전,키워드:안정,안정가,"서비스,산업>기업",서울특별시 양천구 은행정로 85-10,126.8579899,37.5276287,,
양천구,안전,키워드:느좋,안주공방 목동역본점,술집>이자카야,서울특별시 양천구 신정중앙로 100 1층,126.8627797,37.5262367,,https://www.instagram.com/anju_gongbang
양천구,안전,키워드:느좋,남춘네숯불닭갈비 염창직영점,한식>닭갈비,서울특별시 양천구 목동중앙북로 100 1층 남춘네숯불닭갈비 염창직영점,126.8741972,37.5461297,,https://www.instagram.com/namchunne_dak
양천구,안전,키워드:느좋,홍초장 목동점 오목교 막회집,한식>생선회,서울특별시 양천구 목동동로12길 42 1층,126.8757911,37.5223933,,https://www.instagram.com/hongcjg?igsh=MWkzZHNkamp0ZHdvbw==
양천구,안전,키워드:느좋,앤디스톤,"카페,디저트>카페",서울특별시 양천구 목동중앙북로 120 서호빌딩 1층 102호,126.8765082,37.5462744,,https://store.payhere.in/ats0108
양천구,안전,키워드:쉼터,양천공원 책쉼터,"교육,학문>도서관",서울특별시 양천구 목동동로 111 양천공원 책쉼터,126.8683338,37.5185133,,https://www.instagram.com/ycbookshelter23
양천구,안전,키워드:쉼터,뉴제로마켓,"음식점>카페,디저트",서울특별시 양천구 월정로 161-5 1층,126.8360297,37.5330257,,
양천구,안전,키워드:쉼터,넘은들공원 책쉼터,"교육,학문>도서관",서울특별시 양천구 남부순환로 634,126.8404513,37.5130283,,https://cafe.naver.com/ycbookcafe
양천구,안전,키워드:쉼터,용왕산작은책쉼터,"레져,체육시설>공원",,126.8733821,37.5398713,,
양천구,안전,키워드:야경,크루라운지31,"서비스,산업>장소대여",서울특별시 양천구 목동동로 293 31층,126.8757769,37.5281774,,
영등포구,안전,키워드:사람,농장사람들 보라매역점,"한식>육류,고기요리",서울특별시 영등포구 여의대방로 115,126.9193255,37.4978699,,https://instagram.com/people.of.ranch?igshid=qg9cgm92x2fd
영등포구,안전,키워드:사람,서풍 돼지에 미친 사람들,한식>돼지고기구이,서울특별시 영등포구 경인로114길 10 1층,126.9140224,37.518443,,
영등포구,안전,키워드:백화점,현대백화점 더현대 서울,"쇼핑,유통>백화점",서울특별시 영등포구 여의대로 108 더현대 서울,126.9283823,37.5259902,,https://www.ehyundai.com/newPortal/DP/DP000000_V.do?branchCd=B00140000
영등포구,안전,키워드:백화점,타임스퀘어,"쇼핑,유통>쇼핑센터,할인매장",서울특별시 영등포구 영중로 15 타임스퀘어,126.9029652,37.5171629,,http://www.timessquare.co.kr/
영등포구,안전,키워드:백화점,신세계백화점 타임스퀘어점,"쇼핑,유통>백화점",서울특별시 영등포구 영중로 15,126.9053684,37.5175152,,http://department.shinsegae.com/store/main.jsp?storeCode=D03
영등포구,안전,키워드:백화점,진주집,한식>국수,서울특별시 영등포구 국제금융로6길 33 지하 1층,126.9268251,37.5206924,,
영등포구,안전,키워드:백화점,롯데백화점 영등포점,"쇼핑,유통>백화점",서울특별시 영등포구 경인로 846,126.9075357,37.516222,,https://www.lotteshopping.com/store/main?cstrCd=0010
영등포구,안전,키워드:복합문화공간,ALT.1 더현대서울현대백화점,"문화,예술>복합문화공간",서울특별시 영등포구 여의도동 여의대로 108,126.9289154,37.5260667,,
영등포구,안전,키워드:복합문화공간,아크앤북 TP타워여의도점,"쇼핑,유통>도서,음반,문구>서점",서울특별시 영등포구 의사당대로 96 TPTower B2층,126.9228725,37.5215212,,
영등포구,안전,키워드:복합문화공간,재미공작소,"문화,예술>복합문화공간",서울특별시 영등포구 선유로24길 10 2층,126.8911969,37.5225461,,https://blog.naver.com/studiozemi
영등포구,안전,키워드:복합문화공간,영등포아트스퀘어,"문화,예술>복합문화공간",서울특별시 영등포구 영중로 15 지하 2층,126.9029183,37.5176343,,https://ydpartsquare.com/
영등포구,안전,키워드:복합문화공간,술술센터,"문화,예술>복합문화공간",서울특별시 영등포구 도림로133길 15 술술센터,126.8941533,37.513015,,https://soolsool.or.kr/
영등포구,안전,키워드:안정,바로큐,"취미,레저용품>헬스용품",서울특별시 영등포구 여의도동 여의대방로65길 17 서린빌딩 5층 506호,126.9292276,37.5197455,,
영등포구,안전,키워드:안정,한국장애인고용안정협회,"서비스,산업>기업",서울특별시 영등포구 의사당대로 22 이룸센터 404호,126.918007,37.5268783,,
영등포구,안전,키워드:느좋,쉐프조  문래본점,"카페,디저트>베이커리","서울특별시 영등포구 문래로 98 한영빌딩 104호,105호,106호",126.8927188,37.5192764,,http://instagram.com/chefcho77
영등포구,안전,키워드:느좋,쉐프조부띠끄 서울영등포점,"카페,디저트>케이크전문",서울특별시 영등포구 양산로31길 4 1층,126.9046076,37.5230753,,
영등포구,안전,키워드:느좋,연탄불 영등포구청본점,"한식>육류,고기요리",서울특별시 영등포구 양산로17길 17 연탄불,126.8936038,37.5260935,,https://app.catchtable.co.kr/ct/shop/yeontanbul
영등포구,안전,키워드:느좋,브레드컴퍼니쉐프조,"카페,디저트>베이커리",서울특별시 영등포구 당산로31길 20 1층,126.8945977,37.5268892,,
영등포구,안전,키워드:느좋,모닝캄커피랩 당산점,"음식점>카페,디저트",서울특별시 영등포구 당산로35길 1 1층 모닝캄커피랩,126.8972908,37.5287301,,http://www.instagram.com/morningcalm_coffee
영등포구,안전,키워드:쉼터,쉼터호프,"술집>맥주,호프",서울특별시 영등포구 선유동1로 20,126.8920273,37.5237411,,
영등포구,안전,키워드:쉼터,당산나루소공원,"레져,체육시설>공원",,126.9005246,37.532775,,
영등포구,안전,키워드:쉼터,셀커피,"카페,디저트>카페",서울특별시 영등포구 영등포로79길 6 1층 102호,126.9212506,37.5141464,,
영등포구,안전,키워드:쉼터,문래근린공원물길쉼터,"도시,테마공원>부속시설",,126.8940306,37.5173019,,
영등포구,안전,키워드:쉼터,라이브쉼터4050,"카페,디저트>라이브카페",서울특별시 영등포구 양평로 104,126.8960725,37.5370145,,
영등포구,안전,키워드:야경,워킹온더클라우드,음식점>양식,서울특별시 영등포구 63로 50 한화생명빌딩 59층,126.9398902,37.5197398,,https://www.instagram.com/63_skylinedining/
영등포구,안전,키워드:야경,여의도 이크루즈,"유람선,관광선",서울특별시 영등포구 여의동로 290 이크루즈 매표소,126.9379665,37.5249146,,https://buly.kr/9tCliOP
영등포구,안전,키워드:야경,양화 한강공원,"여행,명소>시민공원",서울특별시 영등포구 노들로 113 양화개나리점,126.8957603,37.5430082,,http://hangang.seoul.go.kr/archives/46804
영등포구,안전,키워드:야경,백리향,중식>중식당,서울특별시 영등포구 63로 50 한화금융센터_63 57층,126.9403581,37.5198206,,https://app.catchtable.co.kr/ct/shop/63restaurant_b?from=share&type=DINING
영등포구,안전,키워드:야경,다이닝야경 문래점,술집>요리주점,"서울특별시 영등포구 도림로 440-17 1층, 옥상층",126.8945319,37.5151613,,https://www.instagram.com/diningyakung_mullae?igsh=YmhtcDFmN2ZkZDgx
용산구,안전,키워드:밝은,밝은달 한남,한식>생선회,서울특별시 용산구 독서당로 81 1층,127.0093916,37.5344348,,https://app.catchtable.co.kr/ct/shop/BrightMoon
용산구,안전,키워드:사람,동네사람,술집>이자카야,서울특별시 용산구 한강대로44길 20 1층,126.9708967,37.5306536,,
용산구,안전,키워드:사람,나무를심는사람들,"서비스,산업>출판사",서울특별시 용산구 서빙고로 35 시티파크 1단지 103-804,126.9693093,37.5254155,,http://post.naver.com/nasimsabooks
용산구,안전,키워드:사람,극단 이스케이프,"문화,예술>극단",서울특별시 용산구 후암로 45,126.9776368,37.5525627,,http://eskapetheatre.com/
용산구,안전,키워드:백화점,아이파크몰 용산점 테이스트파크,"쇼핑,유통>백화점",서울특별시 용산구 한강대로21나길 7 용산역,126.9643894,37.5302964,,
용산구,안전,키워드:백화점,아이파크몰 용산점 리빙파크,"쇼핑,유통>백화점",서울특별시 용산구 한강대로21나길 7,126.9646837,37.5289177,,
용산구,안전,키워드:백화점,아이파크몰 용산점 패션파크,"쇼핑,유통>백화점",서울특별시 용산구 한강대로21나길 7 용산역,126.9658492,37.529694,,
용산구,안전,키워드:백화점,아이파크몰 용산점 더센터,"쇼핑,유통>백화점",서울특별시 용산구 한강대로21나길 7 용산역,126.9651071,37.5293056,,
용산구,안전,키워드:복합문화공간,노들섬,"문화,예술>복합문화공간",서울특별시 용산구 양녕로 445,126.9580519,37.5176704,,https://nodeul.org/
용산구,안전,키워드:복합문화공간,YTN서울타워,"문화,예술>복합문화공간",서울특별시 용산구 남산공원길 105,126.9882487,37.5512164,,http://seoultower.co.kr/
용산구,안전,키워드:복합문화공간,국립박물관문화재단,"문화,예술>복합문화공간",서울특별시 용산구 서빙고로 137 교육동 2층 국립박물관문화재단,126.9803881,37.5240867,,http://www.nmf.or.kr
용산구,안전,키워드:복합문화공간,팝콘D스퀘어,"문화,예술>복합문화공간",서울특별시 용산구 한강대로23길 55 아이파크몰 테마파크 6층 1-1호,126.9621508,37.5291895,,http://popcond.com
용산구,안전,키워드:복합문화공간,페이스갤러리,"문화,예술>복합문화공간",서울특별시 용산구 이태원로 267 페이스갤러리,127.0013336,37.5384432,,http://www.pacegallery.com/
용산구,안전,키워드:느좋,쿠시노리 이태원,술집>이자카야,서울특별시 용산구 회나무로13가길 3-8 1층,126.989974,37.5408952,,https://app.catchtable.co.kr/ct/shop/kusinori_yongsan
용산구,안전,키워드:느좋,용산숯방,"한식>육류,고기요리",서울특별시 용산구 한강대로39길 2-7 1층 용산숯방,126.9690857,37.5309628,,
용산구,안전,키워드:느좋,Ha_tebah,"음식점>카페,디저트",서울특별시 용산구 소월로20길 60 1층 우측,126.9843061,37.5441312,,https://www.instagram.com/ha_tebah?igsh=N3Z6c2t4Z2dlamph
용산구,안전,키워드:느좋,레스트,술집>바(BAR),서울특별시 용산구 녹사평대로46길 5 . 1층,126.9872397,37.5374354,,https://app.catchtable.co.kr/ct/shop/barrest?pickup-date=230421&pickup-time=0541
용산구,안전,키워드:느좋,해방촌 칵테일바 지니펍 GENIE PUB,술집>바(BAR),서울특별시 용산구 신흥로 37 3층 지니펍,126.9871517,37.5417987,,https://www.instagram.com/genie_pub
용산구,안전,키워드:쉼터,소월정원,"레져,체육시설>공원",서울특별시 용산구 소월로 109,126.9824194,37.552373,,
용산구,안전,키워드:쉼터,남산하늘뜰,"레져,체육시설>공원",,126.9817319,37.552946,,
용산구,안전,키워드:쉼터,소월길주민쉼터,"레져,체육시설>공원",,126.9877161,37.5457832,,
용산구,안전,키워드:쉼터,건강정원,"레져,체육시설>공원",서울특별시 용산구,126.9872268,37.548692,,
용산구,안전,키워드:쉼터,용산열린정원,"레져,체육시설>공원",,126.973643,37.5373751,,
용산구,안전,키워드:야경,N서울타워,"여행,명소>전망대",서울특별시 용산구 남산공원길 105,126.9882475,37.5512168,,https://www.nseoultower.co.kr/
용산구,안전,키워드:야경,차경,술집>와인,서울특별시 용산구 소월로20길 46 2층,126.984796,37.5445939,,https://app.catchtable.co.kr/ct/shop/chakyung_hbc
용산구,안전,키워드:야경,S.caf,"음식점>카페,디저트",서울특별시 용산구 소월로26길 12 아르테소월 3층,126.9870647,37.545403,,https://www.instagram.com/s.caf_seoul
용산구,안전,키워드:야경,푸에고,음식점>양식,서울특별시 용산구 유엔빌리지길 14,127.0098489,37.5339801,,http://www.instagram.com/restaurantfuego
용산구,안전,키워드:야경,쉘터 해방촌,"카페,디저트>카페",서울특별시 용산구 신흥로11길 49-12 3층,126.9855184,37.5446578,,https://litt.ly/shelter_hbc
은평구,안전,키워드:사람,산이좋은사람들,술집>요리주점,서울특별시 은평구 불광로18길 12,126.932682,37.6222992,,
은평구,안전,키워드:사람,커피와사람들,"카페,디저트>카페",서울특별시 은평구 증산로 319 1층 커피와사람들,126.9109317,37.5854063,,https://www.커피와사람들.net
은평구,안전,키워드:사람,행복을주는사람들,"지원,대행>이벤트,파티",,126.9118356,37.5979173,,
은평구,안전,키워드:백화점,NC백화점 불광점,"쇼핑,유통>백화점",서울특별시 은평구 불광로 20 NC백화점불광점,126.9289169,37.6097688,,https://www.elandretail.com/store01.do?branchID=00110007&lang=000600KO
은평구,안전,키워드:백화점,트렌드컬렉션NC백화점불광점,"쇼핑,유통>패션",서울특별시 은평구 불광로 20,126.9288868,37.6099224,,
은평구,안전,키워드:백화점,모던하우스침장NC백화점불광점,"쇼핑,유통>종합생활용품",서울특별시 은평구 불광로 20 NC백화점,126.9286827,37.6099708,,https://www.instagram.com/modernhouse_life/
은평구,안전,키워드:백화점,노스폐이스 NC백화점 불광점,"쇼핑,유통>등산,아웃도어",서울특별시 은평구 불광로 20,126.9289115,37.6097655,,
은평구,안전,키워드:복합문화공간,서울청년센터 은평,"문화,예술>복합문화공간",서울특별시 은평구 통일로67길 9 주주베 A동 2층,126.9285128,37.6107358,,https://blog.naver.com/sycep
은평구,안전,키워드:복합문화공간,솔향재,"문화,예술>복합문화공간",서울특별시 은평구 진관길 4 1층,126.938913,37.6420709,,https://greenear.co.kr/
은평구,안전,키워드:복합문화공간,아트숨비센터,"문화,예술>복합문화공간",서울특별시 은평구 은평로8길 9 아트숨비센터,126.9207244,37.5994045,,https://blog.naver.com/artsoombi
은평구,안전,키워드:복합문화공간,오포짓 스탠다드,"문화,예술>복합문화공간",서울특별시 은평구 서오릉로 17,126.9257578,37.6027788,,https://www.instagram.com/opposite_standard
은평구,안전,키워드:복합문화공간,복합문화공간 카페멘테,테마카페,서울특별시 은평구 통일로 951 1층,126.9193159,37.627741,,
은평구,안전,키워드:느좋,친친악어,음식점>술집,서울특별시 은평구 갈현로 7 2층,126.9100384,37.5986702,,http://instagram.com/cincin_croc
은평구,안전,키워드:느좋,월하점,"음식점>카페,디저트",서울특별시 은평구 응암로21가길 9-11 상가 1층 월하점,126.9163507,37.5947423,,https://www.instagram.com/wolhaaa._.dat
은평구,안전,키워드:느좋,서부집 역촌점,"한식>육류,고기요리",서울특별시 은평구 진흥로5길 14-1 1층 서부집,126.9193881,37.6028004,,
은평구,안전,키워드:쉼터,쉼터,숙박>모텔,서울특별시 은평구,126.9515216,37.6538507,,
은평구,안전,키워드:쉼터,은평춘당,"레져,체육시설>공원",서울특별시 은평구 증산로 410,126.9144224,37.5933586,,
은평구,안전,키워드:쉼터,무더위쉼터 은평뉴타운상림마을14단지아파트경로당,편의시설>무더위쉼터,서울특별시 은평구 진관4로 48-51 (은평뉴타운 상림마을 742동),126.931128,37.642753,,
은평구,안전,키워드:쉼터,지진옥외대피장소 앵봉산주민쉼터,지진대피장소,,126.912237,37.62437,,
은평구,안전,키워드:야경,인왕산,"여행,명소>산",,126.9578437,37.5849,,
종로구,안전,키워드:사람,사람과나무 찻집,"카페,디저트>한방카페",서울특별시 종로구 인사동6길 5 (관훈동),126.9861956,37.5734246,,
종로구,안전,키워드:사람,늘편한사람들,테마카페,서울특별시 종로구 자하문로 18 지하1층,126.9723521,37.5776857,,
종로구,안전,키워드:백화점,생명의말씀사 광화문점,"쇼핑,유통>서점",,126.972335,37.570384,,http://pf.kakao.com/_xkxfKUT
종로구,안전,키워드:백화점,철판미학 롯데백화점 영등포점,음식점>한식,서울특별시 종로구 삼청로 124-2,126.9820098,37.5863108,,
종로구,안전,키워드:백화점,미림아트,"쇼핑,유통>미술,공예품",서울특별시 종로구 인사동길 11-1 미림아트센터 1층,126.986718,37.5718739,,http://www.milimart.com/
종로구,안전,키워드:복합문화공간,쌈지길,"문화,예술>복합문화공간",서울특별시 종로구 인사동길 44 쌈지길,126.9849308,37.5741994,,http://m.smartstore.naver.com/ssamzigil
종로구,안전,키워드:복합문화공간,NOL 유니플렉스,"문화,예술>공연장",서울특별시 종로구 대학로12길 64,127.003629,37.581197,,http://www.uniplex.co.kr/
종로구,안전,키워드:복합문화공간,서울동행상회,"문화,예술>복합문화공간",서울특별시 종로구 율곡로 39 안국빌딩 신관 1층,126.9838821,37.5760264,,https://www.instagram.com/donghaeng_store
종로구,안전,키워드:복합문화공간,국가유산진흥원 경복궁 버들마루,"문화,예술>복합문화공간",서울특별시 종로구 사직로 161 경복궁,126.9770383,37.5788482,,http://www.khstore.or.kr/
종로구,안전,키워드:복합문화공간,사랑 창덕궁,"카페,디저트>카페",서울특별시 종로구 창경궁로 185,126.9938423,37.577622,,
종로구,안전,키워드:느좋,H라운지,음식점>양식,서울특별시 종로구 자하문로4길 21-9,126.9735061,37.5779155,,https://m.site.naver.com/1DVXM
종로구,안전,키워드:느좋,육전국밥 대학로점,음식점>한식>국밥,서울특별시 종로구 동숭길 117 3층,127.0035713,37.5831723,,https://yukjeonuniv.jalib.site/
종로구,안전,키워드:느좋,고치비,음식점>이탈리아음식,서울특별시 종로구 필운대로 38 1층 고치비,126.9689316,37.5793391,,http://www.instagram.com/osteria_kochibi
종로구,안전,키워드:느좋,비지터,"음식점>카페,디저트",서울특별시 종로구 옥인길 32-3 1층 visitor,126.9669065,37.5810753,,https://blog.naver.com/visitorcoffee
종로구,안전,키워드:쉼터,다솜이쉼터,"생활,편의>편의점",서울특별시 종로구 종로 1 교보빌딩 17층,126.9778787,37.5709477,,
종로구,안전,키워드:쉼터,쉼터산울림,음식점>한식,서울특별시 종로구 비봉2길 76,126.9610449,37.6151817,,
종로구,안전,키워드:쉼터,인왕산 숲속 쉼터,등산코스>시설,,126.9622612,37.5865537,,
종로구,안전,키워드:쉼터,모두의갤러리 작은쉼터갤러리,"문화,예술>복합문화공간",서울특별시 종로구 계동2길 11-9,126.9876837,37.5803822,,
종로구,안전,키워드:쉼터,청계천이보이는쉼터,"레져,체육시설>공원",,126.9802979,37.5694807,,
종로구,안전,키워드:야경,경복궁,"여행,명소>궁궐",서울특별시 종로구 사직로 161 경복궁,126.9770162,37.5788408,,https://royal.khs.go.kr/gbg
종로구,안전,키워드:야경,낙산공원,"여행,명소>근린공원",서울특별시 종로구 낙산길 41,127.0075869,37.5804769,,
종로구,안전,키워드:야경,광화문,"여행,명소>기념물",서울특별시 종로구 효자로 12 국립고궁박물관,126.9768428,37.5760259,,
종로구,안전,키워드:야경,북악팔각정,"여행,명소>도시,테마공원",서울특별시 종로구 북악산로 267,126.9806665,37.6015694,,
중구,안전,키워드:사람,무대위사람들 스튜디오,"서비스,산업>장소대여",서울특별시 중구 동호로24길 19-17 B1 무대위사람들 스튜디오,127.0048662,37.5598693,,https://www.spacecloud.kr/space/49722
중구,안전,키워드:사람,좋은사람,"쇼핑,유통>패션",서울특별시 중구 남대문시장4길 31-10,126.9776779,37.5588489,,
중구,안전,키워드:사람,음악과사람들,"술집>맥주,호프",서울특별시 중구 정동길 2-1 정동 갑도빌딩6층,126.9693662,37.5679852,,
중구,안전,키워드:대형 쇼핑몰,베네치아메가몰,"쇼핑,유통>쇼핑센터,할인매장",서울특별시 중구 청계천로 400 롯데캐슬베네치아,127.0216563,37.5711281,,
중구,안전,키워드:백화점,롯데백화점 본점,"쇼핑,유통>백화점",서울특별시 중구 남대문로 81,126.9818747,37.5649826,,https://www.lotteshopping.com/store/main?cstrCd=0001
중구,안전,키워드:백화점,신세계백화점 본점 더 리저브,"쇼핑,유통>백화점",서울특별시 중구 소공로 63,126.9811163,37.5609578,,http://department.shinsegae.com/store/main.jsp?storeCode=D01
중구,안전,키워드:백화점,효담칼국수 닭한마리 명동본점,음식점>한식,서울특별시 중구 명동3길 12 B1층,126.983632,37.5642444,,https://www.instagram.com/hyodam_dakkal
중구,안전,키워드:백화점,옵스 롯데소공점,"카페,디저트>베이커리",서울특별시 중구 남대문로 81 롯데백화점 본점 지하 1층,126.9816422,37.5649944,,http://ops.co.kr
중구,안전,키워드:복합문화공간,동대문디자인플라자,"문화,예술>복합문화공간",서울특별시 중구 을지로 281,127.0099323,37.5675465,,http://www.ddp.or.kr/
중구,안전,키워드:복합문화공간,문화역서울284,"문화,예술>복합문화공간",서울특별시 중구 통일로 1 문화역서울284,126.9715927,37.5558207,,https://www.seoul284.org
중구,안전,키워드:복합문화공간,충무아트센터,"문화,예술>공연장",서울특별시 중구 퇴계로 387,127.0147446,37.56594,,http://www.caci.or.kr/
중구,안전,키워드:복합문화공간,동대문디자인플라자뮤지엄,"문화,예술>복합문화공간",서울특별시 중구 을지로 281 동대문디자인플라자뮤지엄,127.0095258,37.566763,,
중구,안전,키워드:복합문화공간,B the B,"문화,예술>복합문화공간",서울특별시 중구 을지로 281 DDP 지하 2층 DDP마켓 비더비(B the B),127.0090525,37.566288,,http://btheb.sba.kr
중구,안전,키워드:안정,안정카메라 을지로지하쇼핑센터3구역점,"쇼핑,유통>전자,가전",서울특별시 중구 을지로 131 을지로3구역지하쇼핑,126.9948563,37.56647,,
중구,안전,키워드:안정,유노랩,"교육,학문>연구,연구소",서울특별시 중구 한강대로 416 14층 148호,126.9737678,37.5555057,,
중구,안전,키워드:느좋,센몬,음식점>일식>일식당,서울특별시 중구 동호로24길 19-5 1층 101호,127.0048576,37.5600337,,https://app.catchtable.co.kr/ct/shop/senmon
중구,안전,키워드:느좋,을지로 헤이지니,술집>요리주점,서울특별시 중구 을지로12길 7 2층 을지로 헤이지니,126.991305,37.5658766,,https://app.catchtable.co.kr/ct/shop/euljiro_heygenie
중구,안전,키워드:느좋,을지로야키토리 토리노 라스베가스,술집>이자카야,서울특별시 중구 마른내로 13 1층,126.9894373,37.5648703,,https://lasvegas29.com/
중구,안전,키워드:느좋,을지로야장 을지로 라스베가스,술집>이자카야,서울특별시 중구 을지로12길 28 1층 104호,126.9907064,37.5650991,,https://lasvegas29.com/
중구,안전,키워드:느좋,화이트브릭야드,"음식점>카페,디저트",서울특별시 중구 퇴계로80길 51-6 1층 카페 화이트 브릭 야드,127.01774,37.5629853,,https://www.instagram.com/cafe_whitebrickyard
중구,안전,키워드:쉼터,카페쉼터,"음식점>카페,디저트",서울특별시 중구 을지로32길 33,127.0010989,37.5652113,,
중구,안전,키워드:쉼터,서울로7017공중자연쉼터,"도시,테마공원>부속시설",,126.9730049,37.5565954,,
중구,안전,키워드:쉼터,쉼터올래,"카페,디저트>카페",,126.9644889,37.5548369,,
중구,안전,키워드:쉼터,중구청광장,"레져,체육시설>공원",,126.9980473,37.5635807,,
중구,안전,키워드:야경,남산케이블카,"레저,테마>케이블카",서울특별시 중구 소파로 83,126.9840884,37.5569427,,http://www.namsancablecar.com
중구,안전,키워드:야경,더 플라자 호텔 서울,숙박>호텔,서울특별시 중구 소공로 119,126.9779269,37.5647565,,https://www.hoteltheplaza.com/kr/
중구,안전,키워드:야경,숭례문,"여행,명소>기념물",서울특별시 중구 세종대로 40,126.9753562,37.5599757,,
중구,안전,키워드:야경,남산,"여행,명소>산",,126.9903773,37.5501402,,http://parks.seoul.go.kr/template/sub/namsan.do
중구,안전,키워드:야경,남산공원,"여행,명소>도시,테마공원",서울특별시 중구 삼일대로 231 남산제1별관,126.9925089,37.5510509,,http://parks.seoul.go.kr/namsan
중랑구,안전,키워드:사람,카인드짐 헬스&amp;PT 망우점,스포츠시설>헬스장,서울특별시 중랑구 용마산로115길 108 이안빌딩 지하1층 카인드짐,127.0940062,37.5979516,,https://pf.kakao.com/_exlCVM
중랑구,안전,키워드:사람,치킨과사람들,"음식점>치킨,닭강정",서울특별시 중랑구 신내역로1길 85 110동 105호,127.107484,37.6165489,,
중랑구,안전,키워드:사람,술과사람,술집>포장마차,서울특별시 중랑구 봉우재로33길 86,127.0898863,37.5955656,,
중랑구,안전,키워드:백화점,종합기독교백화점,"쇼핑,유통>개신교용품",서울특별시 중랑구 망우로 192,127.074107,37.593219,,
중랑구,안전,키워드:복합문화공간,중랑아트센터,"문화,예술>복합문화공간",서울특별시 중랑구 망우로 353 이노시티 C동 B2F 중랑아트센터,127.0912806,37.5985,,https://www.jnfac.or.kr/art/index
중랑구,안전,키워드:복합문화공간,빈스로드 시네마,"문화,예술>복합문화공간",서울특별시 중랑구 봉화산로43길 38,127.0876467,37.6051415,,
중랑구,안전,키워드:복합문화공간,중랑망우공간,"문화,예술>복합문화공간",서울특별시 중랑구 망우로91길 2,127.1145149,37.5986636,,
중랑구,안전,키워드:복합문화공간,사가정 마중 마을활력소,"문화,예술>복합문화공간",서울특별시 중랑구 면목로45길 3-2,127.0882307,37.5816424,,https://blog.naver.com/jnmaeul46382
중랑구,안전,키워드:복합문화공간,망우마중마을활력소,"문화,예술>복합문화공간",서울특별시 중랑구 용마산로 461,127.0981658,37.5923635,,https://blog.naver.com/jnmaeul46382
중랑구,안전,키워드:느좋,상봉주전,술집>요리주점,서울특별시 중랑구 면목로92길 28 리더스 101호,127.0874172,37.5953019,,https://www.instagram.com/sangbongjujeon?igsh=MWdmMjZmdnI3cGN4bw==
중랑구,안전,키워드:쉼터,용마쉼터,"한식>백숙,삼계탕",서울특별시 중랑구 용마산로112나길 69,127.1024728,37.595888,,https://www.instagram.com/yong_ma118
중랑구,안전,키워드:쉼터,쉼터생고기집,"한식>육류,고기요리",서울특별시 중랑구 중랑천로20길 9,127.0725363,37.5963803,,
중랑구,안전,키워드:쉼터,용마폭포공원반려가족쉼터,"도시,테마공원>부속시설",,127.0904443,37.5725393,,
중랑구,안전,키워드:쉼터,쉼터옛날칼국수,한식>국수,서울특별시 중랑구 동일로92길 35 A동 101-2호,127.0818218,37.5835056,,
중랑구,안전,키워드:쉼터,망우리공원,"레져,체육시설>공원",,127.1112178,37.6016685,,
중랑구,안전,키워드:야경,용마왕돈까스 본점,음식점>한식,"서울특별시 중랑구 용마산로 248 1층 101,102호 용마왕돈까스",127.0884782,37.5752133,,
